[{"name":"Alexandra Retail Centre","lng":103.8014,"lat":1.27415},{"name":"Anchorvale Village","lng":103.88844,"lat":1.39679},{"name":"ARTRA","lng":103.81655,"lat":1.29013},{"name":"Boat Quay","lng":103.84968,"lat":1.28585},{"name":"Bukit Panjang Plaza","lng":103.76459,"lat":1.37949},{"name":"Buona Vista Community Club","lng":103.79264,"lat":1.30918},{"name":"Changi Airport Terminal 1 Transit West","lng":103.99061,"lat":1.36129},{"name":"Changi Airport Terminal 1 Viewing Mall East","lng":103.99061,"lat":1.36129},{"name":"Changi Airport Terminal 2","lng":103.98914,"lat":1.3553},{"name":"Changi Airport Terminal 3 Transit","lng":103.98621,"lat":1.35641},{"name":"Changi Airport Terminal 4","lng":103.98364,"lat":1.33815},{"name":"Changi Airport Terminal 4 Transit","lng":103.98364,"lat":1.33815},{"name":"Changi City Point","lng":103.96295,"lat":1.33408},{"name":"Chinatown Point","lng":103.84502,"lat":1.28534},{"name":"Clarke Quay Central","lng":103.8468,"lat":1.28887},{"name":"Coastal PlayGrove","lng":103.89969,"lat":1.2969},{"name":"Compass One","lng":103.89507,"lat":1.39205},{"name":"Eastpoint Mall","lng":103.95302,"lat":1.34271},{"name":"ESR BizPark @ Chai Chee","lng":103.92212,"lat":1.32298},{"name":"Fairprice Hub","lng":103.67841,"lat":1.32562},{"name":"Fernvale Woods","lng":103.87119,"lat":1.39184},{"name":"Grantral Mall @ Macpherson","lng":103.88753,"lat":1.33372},{"name":"Heartbeat @ Bedok","lng":103.93181,"lat":1.32662},{"name":"HillV2","lng":103.76417,"lat":1.36267},{"name":"HomeTeamNS Bedok","lng":103.91933,"lat":1.3416},{"name":"HomeTeamNS Khatib","lng":103.8311,"lat":1.41471},{"name":"Hougang RiverCourt","lng":103.89491,"lat":1.36275},{"name":"IMM Building","lng":103.74689,"lat":1.33488},{"name":"Jem","lng":103.74328,"lat":1.33329},{"name":"Junction 9","lng":103.84166,"lat":1.43312},{"name":"Jurong Point","lng":103.70535,"lat":1.33932},{"name":"Kallang Leisure Park","lng":103.87647,"lat":1.3023},{"name":"Keat Hong Community Club","lng":103.74495,"lat":1.3841},{"name":"Kebun Baru Community Club","lng":103.83761,"lat":1.37301},{"name":"Kent Ridge Centre (One@Kent Ridge)","lng":103.78408,"lat":1.29277},{"name":"KINEX","lng":103.89455,"lat":1.31474},{"name":"Kitchener Complex","lng":103.86201,"lat":1.30833},{"name":"Loyang Point","lng":103.96463,"lat":1.36707},{"name":"Marina Bay Link Mall","lng":103.85477,"lat":1.27992},{"name":"Marina Square","lng":103.85703,"lat":1.29157},{"name":"Marsiling Mall","lng":103.77988,"lat":1.43354},{"name":"New Tech Park (NTP+)","lng":103.8607,"lat":1.35206},{"name":"Parkway Parade","lng":103.90551,"lat":1.30104},{"name":"Pasir Ris East Community Club","lng":103.95918,"lat":1.3688},{"name":"Pasir Ris Sports Centre","lng":103.95185,"lat":1.37406},{"name":"Paya Lebar Square","lng":103.89258,"lat":1.31881},{"name":"Plaza Singapura","lng":103.84507,"lat":1.30082},{"name":"Punggol Coast Mall","lng":103.91061,"lat":1.41477},{"name":"SAFRA Choa Chu Kang","lng":103.74723,"lat":1.38858},{"name":"Sembawang Shopping Centre","lng":103.82479,"lat":1.44175},{"name":"Shaw Plaza (Twin Heights)","lng":103.851,"lat":1.32525},{"name":"Suntec City Mall","lng":103.86033,"lat":1.29486},{"name":"Tampines Changkat Community Club","lng":103.94755,"lat":1.34585},{"name":"Tampines Mall","lng":103.94468,"lat":1.3525},{"name":"Tampines Mart","lng":103.95991,"lat":1.35437},{"name":"Tampines North Community Club","lng":103.9466,"lat":1.35736},{"name":"Tengah Community Club","lng":103.73465,"lat":1.35679},{"name":"The Clementi Mall","lng":103.76427,"lat":1.31497},{"name":"The Rail Mall","lng":103.76765,"lat":1.35923},{"name":"The Woodgrove","lng":103.78092,"lat":1.42899},{"name":"The Woodleigh Mall","lng":103.87175,"lat":1.33869},{"name":"Thomson Plaza","lng":103.83092,"lat":1.35467},{"name":"Tiong Bahru Plaza","lng":103.82694,"lat":1.28646},{"name":"Toa Payoh Mall","lng":103.84709,"lat":1.33217},{"name":"United Square Shopping Centre","lng":103.84367,"lat":1.31743},{"name":"VivoCity","lng":103.82207,"lat":1.26431},{"name":"Waterway Point","lng":103.90213,"lat":1.40641},{"name":"West Coast Community Centre","lng":103.76483,"lat":1.30265},{"name":"West Mall","lng":103.74917,"lat":1.34992},{"name":"Wisteria Mall","lng":103.84127,"lat":1.41795},{"name":"Woodlands Community Club","lng":103.78824,"lat":1.43982},{"name":"Woodlands North Coast","lng":103.79138,"lat":1.44654},{"name":"YewTee Point","lng":103.74644,"lat":1.39697},{"name":"Yishun Town Square","lng":103.83632,"lat":1.42875},{"name":"Ang Mo Kio Hub","lng":103.84869,"lat":1.36924},{"name":"Burlington Square","lng":103.8527,"lat":1.30224},{"name":"Capitol Singapore","lng":103.85126,"lat":1.29308},{"name":"Changi Business Park","lng":103.96312,"lat":1.33587},{"name":"Fuchun Community Club","lng":103.77485,"lat":1.42959},{"name":"Heartland Mall","lng":103.88517,"lat":1.35954},{"name":"Hitachi Tower","lng":103.8525,"lat":1.28424},{"name":"Jewel Changi Airport","lng":103.98908,"lat":1.36034},{"name":"Link@896 Dunearn Road","lng":103.78372,"lat":1.3367},{"name":"NEX","lng":103.87186,"lat":1.35068},{"name":"The Seletar Mall","lng":103.87609,"lat":1.39131}]