[{"name":"Yuhua Senior Activity Centre","lng":103.73101,"lat":1.34762},{"name":"THK SAC @ Kaki Bukit","lng":103.9304,"lat":1.33369},{"name":"THK SAC @ Boon Lay","lng":103.71185,"lat":1.34508},{"name":"PEACE-Connect Senior Activity Centre@5","lng":103.86482,"lat":1.30435},{"name":"THK SAC @ Beo Crescent","lng":103.8263,"lat":1.28881},{"name":"Silver ACE @ Bukit Merah","lng":103.82684,"lat":1.28171},{"name":"Lions Befrienders Senior Activity Centre @ Tampines Blk 499C","lng":103.95611,"lat":1.35954},{"name":"Care Corner Senior Activity Centre (WL569)","lng":103.78972,"lat":1.43012},{"name":"Fei Yue Senior Activity Centre (Bukit Batok Branch)","lng":103.75084,"lat":1.34543},{"name":"COMNET Senior Activity Centre @ 182 Rivervale Crescent","lng":103.90922,"lat":1.39047},{"name":"Abdullah Shooker Jewish Welfare Home","lng":103.8472,"lat":1.30288},{"name":"Adventist Home For The Elders","lng":103.85835,"lat":1.33008},{"name":"AWWA Community Home for Senior Citizens","lng":103.84465,"lat":1.37051},{"name":"Bo Tien Home For The Aged","lng":103.7189,"lat":1.33131},{"name":"Evergreen Place, Home @Hong San","lng":103.74547,"lat":1.37803},{"name":"Geylang East Home For The Aged","lng":103.88567,"lat":1.3213},{"name":"Henderson Senior Citizens' Home","lng":103.82177,"lat":1.28435},{"name":"Kheng Chiu Loke Tin Kee Home","lng":103.94666,"lat":1.35632},{"name":"PERTAPIS Senior Citizens Fellowship Home","lng":103.85604,"lat":1.34177},{"name":"SBWS Happy Villa (Females)","lng":103.84239,"lat":1.2756},{"name":"Singapore Baptist Convention Golden Age Home","lng":103.86834,"lat":1.32037},{"name":"St Andrew's Cathedral Home For The Aged","lng":103.76905,"lat":1.31917},{"name":"St John's Home for the Aged","lng":103.87361,"lat":1.33306},{"name":"St Vincent Home","lng":103.85227,"lat":1.29861},{"name":"Zion Home For The Aged","lng":103.92813,"lat":1.32698},{"name":"NTUC Health Cluster Support @ Taman Jurong","lng":103.72031,"lat":1.3358},{"name":"NTUC Health Cluster Support @ Bt Merah","lng":103.8228,"lat":1.28308},{"name":"THK Cluster Support @ Bedok","lng":103.93674,"lat":1.32041},{"name":"Peace-Connect Cluster Operator","lng":103.86482,"lat":1.30435},{"name":"THK Cluster Support @ Pipit","lng":103.8881,"lat":1.32273},{"name":"THK Cluster Support @ AMK","lng":103.84275,"lat":1.37769},{"name":"AMKFSC Cluster Support","lng":103.85663,"lat":1.36452},{"name":"Carecorner Cluster Suppport","lng":103.85128,"lat":1.33584},{"name":"SACS Cluster Support@Jurong East","lng":103.73255,"lat":1.34961},{"name":"THK Senior Group Home @ AMK257","lng":103.83578,"lat":1.37017},{"name":"THK Senior Group Home @ Indus","lng":103.82869,"lat":1.29107},{"name":"PEACE-Connect Senior Group Home@8","lng":103.864,"lat":1.30459},{"name":"TOUCH Senior Group Home@Geylang Bahru","lng":103.86926,"lat":1.32231},{"name":"Lions Befrienders Senior Group Home (Mei Ling)","lng":103.80304,"lat":1.29457},{"name":"Care Corner SGH @ WL569A","lng":103.78972,"lat":1.43012},{"name":"SACS Senior Group Home @ 373 JE","lng":103.73236,"lat":1.34935},{"name":"Fei Yue Senior Group Home @ Hougang","lng":103.88909,"lat":1.34912},{"name":"COMNET Senior Group Home @ Rivervale Crescent","lng":103.90922,"lat":1.39047},{"name":"Lions Befrienders Senior Group Home @ Tampines 499C","lng":103.95611,"lat":1.35954},{"name":"Fei Yue Senior Group Home @ Teck Whye Crescent","lng":103.75352,"lat":1.38274},{"name":"Care Corner SGH @ WL180C","lng":103.77859,"lat":1.43956},{"name":"THK Senior Group Home @ Pipit Road","lng":103.88846,"lat":1.3232},{"name":"NTUC Health Senior Group Home @ Henderson","lng":103.82177,"lat":1.28435},{"name":"Econ Health and Wellness Centre","lng":103.85399,"lat":1.34532},{"name":"Thye Hua Kwan Moral Charities Limited","lng":103.7226,"lat":1.33818},{"name":"Econ Health and Wellness Centre","lng":103.81098,"lat":1.294},{"name":"Econ Health and Wellness Centre","lng":103.78955,"lat":1.43087},{"name":"Econ Health and Wellness Centre","lng":103.82768,"lat":1.28995},{"name":"Thye Hua Kwan Moral Charities Limited","lng":103.80681,"lat":1.27348},{"name":"Pacific Activity Centres Pte Ltd","lng":103.7947,"lat":1.43755},{"name":"Econ Health and Wellness Centre","lng":103.74514,"lat":1.39441},{"name":"Econ Health and Wellness Centre","lng":103.9462,"lat":1.34524},{"name":"Econ Health and Wellness Centre","lng":103.88861,"lat":1.39526},{"name":"Pacific Activity Centres Pte Ltd","lng":103.89854,"lat":1.40598},{"name":"Pacific Activity Centres Pte Ltd","lng":103.84295,"lat":1.43417},{"name":"Econ Health and Wellness Centre","lng":103.75578,"lat":1.34755},{"name":"Pacific Activity Centres Pte Ltd","lng":103.84538,"lat":1.43196},{"name":"Pacific Activity Centres Pte Ltd","lng":103.89992,"lat":1.40117},{"name":"Pacific Activity Centres Pte Ltd","lng":103.93333,"lat":1.35586},{"name":"NTUC Eldercare Co-operative Ltd","lng":103.77814,"lat":1.43906},{"name":"Pacific Activity Centres Pte Ltd","lng":103.8926,"lat":1.38573},{"name":"Pacific Activity Centres Pte Ltd","lng":103.8292,"lat":1.28634},{"name":"Adventist Home for the Elders","lng":103.71569,"lat":1.34794},{"name":"Adventist Home for the Elders","lng":103.85902,"lat":1.3313},{"name":"Methodist Welfare Services","lng":103.88123,"lat":1.39786},{"name":"Presbyterian Community Services","lng":103.77199,"lat":1.33813},{"name":"Singapore Anglican Community Services","lng":103.84642,"lat":1.42308},{"name":"Singapore Anglican Community Services","lng":103.72509,"lat":1.34864},{"name":"Unicare Services Pte Ltd","lng":103.73791,"lat":1.37735},{"name":"AWWA Senior Activity Centre","lng":103.84465,"lat":1.37051},{"name":"THK Bedok Radiance Senior Activity Centre","lng":103.9369,"lat":1.3211},{"name":"Care Corner Senior Activity Centre (TP5)","lng":103.85581,"lat":1.33866},{"name":"Care Corner Senior Activity Centre (TP149)","lng":103.84376,"lat":1.33378},{"name":"Care Corner Senior Activity Centre (TP170)","lng":103.84267,"lat":1.33132},{"name":"Care Corner Senior Activity Centre (TP62B)","lng":103.85128,"lat":1.33584},{"name":"CARElderly Senior Activity Centre","lng":103.88601,"lat":1.32916},{"name":"CARElderly Senior Activity Centre (Merpati)","lng":103.88436,"lat":1.32773},{"name":"COMNET @ Teck Ghee Senior Activity Centre","lng":103.85311,"lat":1.365},{"name":"Teck Ghee Senior Activity Centre Branch @ Blk 469","lng":103.85663,"lat":1.36452},{"name":"Chong Hua Tong Senior Activity Centre","lng":103.85012,"lat":1.31485},{"name":"COMNET@Sin Ming Senior Activity Centre","lng":103.84055,"lat":1.3558},{"name":"Fei Yue Senior Activity Centre (Holland Close)","lng":103.79673,"lat":1.30922},{"name":"Fei Yue SAC (Commonwealth Branch)","lng":103.79931,"lat":1.30786},{"name":"Fei Yue Senior Activity Centre (Teck Whye)","lng":103.75415,"lat":1.38004},{"name":"Goodlife!","lng":103.91394,"lat":1.30488},{"name":"Harmony Activity Centre","lng":103.8857,"lat":1.32087},{"name":"Henderson Senior Activity Centre","lng":103.82177,"lat":1.28435},{"name":"Indus Moral CARE","lng":103.82869,"lat":1.29107},{"name":"Jia Ying Senior Activity Centre","lng":103.89181,"lat":1.36379},{"name":"Jia Ying Senior Activity Centre @ 25 (Branch)","lng":103.89171,"lat":1.36583},{"name":"Kembangan- Chai Chee Senior Activity Centre","lng":103.92181,"lat":1.32524},{"name":"King George\u2019s Ave Senior Activity Centre","lng":103.86129,"lat":1.30775},{"name":"Kreta Ayer Senior Activity Centre (Banda)","lng":103.84341,"lat":1.28118},{"name":"Kreta Ayer Senior Activity Centre (Jalan Kukoh)","lng":103.83941,"lat":1.28738},{"name":"Kreta Ayer Senior Activity Centre (Chin Swee)","lng":103.84203,"lat":1.2874},{"name":"Lions Befrienders (Ang Mo Kio 318) Senior Activity Centre","lng":103.84765,"lat":1.36556},{"name":"Lions Befrienders (Bendemeer) Senior Activity Centre","lng":103.86338,"lat":1.31982},{"name":"Lions Befrienders (Clementi) Senior Activity Centre","lng":103.76866,"lat":1.30979},{"name":"Lions Befrienders (Ghim Moh) Senior Activity Centre","lng":103.78708,"lat":1.31015},{"name":"Lions Befrienders (Mei Ling) Senior Activity Centre","lng":103.8037,"lat":1.2949},{"name":"Lions Befrienders (Tampines) Senior Activity Centre","lng":103.95161,"lat":1.35924},{"name":"Moral Senior Activity Centre (Kaki Bukit)","lng":103.92425,"lat":1.33055},{"name":"PEACE-Connect Senior Activity Centre@8","lng":103.864,"lat":1.30459},{"name":"Sarah Senior Activity Centre","lng":103.82494,"lat":1.28063},{"name":"Redhill Moral Senior Activity Centre","lng":103.81878,"lat":1.28544},{"name":"Silver Ace @ Taman Jurong","lng":103.72332,"lat":1.33558},{"name":"Silver Ace@Lengkok Bahru","lng":103.81415,"lat":1.28821},{"name":"Silver Ace@Redhill","lng":103.81748,"lat":1.28732},{"name":"Silver Ace@Telok Blangah","lng":103.82299,"lat":1.27147},{"name":"Silver Ace@Whampoa","lng":103.85956,"lat":1.32641},{"name":"Sunlove Senior Activity Centre (Chai Chee)","lng":103.92488,"lat":1.3242},{"name":"Sunlove Senior Activity Centre (Marsiling)","lng":103.77645,"lat":1.43941},{"name":"Tembusu Senior Activity Centre","lng":103.90162,"lat":1.32003},{"name":"THK SAC @ AMK 257","lng":103.83578,"lat":1.37017},{"name":"THK SAC @ AMK 645","lng":103.84223,"lat":1.37928},{"name":"THK SAC @ Toa Payoh 15","lng":103.85906,"lat":1.33592},{"name":"THK SAC @ Bukit Merah","lng":103.82107,"lat":1.28406},{"name":"THK SAC @ Henderson (Satellite 93)","lng":103.82042,"lat":1.28692},{"name":"THK SAC @ MacPherson","lng":103.88652,"lat":1.32338},{"name":"THK SAC @ Telok Blangah Crescent","lng":103.81753,"lat":1.27867},{"name":"THK SAC @ Toa Payoh 31","lng":103.85452,"lat":1.33322},{"name":"THK SAC @ AMK 208","lng":103.84272,"lat":1.36544},{"name":"Thong Kheng Senior Activity Centre (Queenstown)","lng":103.807,"lat":1.28713},{"name":"Thong Kheng Senior Activity Centre (Tanglin-Cairnhill)","lng":103.8232,"lat":1.28413},{"name":"TOUCH Senior Activity Centre","lng":103.86926,"lat":1.32231},{"name":"Wesley Senior Activity Centre","lng":103.85822,"lat":1.30622},{"name":"Evergreen Circle SAC","lng":103.93261,"lat":1.34981},{"name":"Fei Yue Senior Activity Centre (Bukit Batok)","lng":103.74338,"lat":1.34633}]