[{"name":"IMM Building","lng":103.74689,"lat":1.33488},{"name":"Burlington Square","lng":103.8527,"lat":1.30224},{"name":"Plaza Singapura","lng":103.84507,"lat":1.30082},{"name":"Toa Payoh Mall","lng":103.84709,"lat":1.33217},{"name":"VivoCity","lng":103.82207,"lat":1.26431},{"name":"Clarke Quay Central","lng":103.8468,"lat":1.28887},{"name":"Changi Airport Terminal 1 Transit West","lng":103.99061,"lat":1.36129},{"name":"Changi Airport Terminal 3 Transit","lng":103.98621,"lat":1.35641},{"name":"Jurong Point","lng":103.70535,"lat":1.33932},{"name":"Kallang Leisure Park","lng":103.87647,"lat":1.3023},{"name":"Alexandra Retail Centre","lng":103.8014,"lat":1.27415},{"name":"Jem","lng":103.74328,"lat":1.33329},{"name":"Bukit Panjang Plaza","lng":103.76459,"lat":1.37949},{"name":"Sembawang Shopping Centre","lng":103.82479,"lat":1.44175},{"name":"Kent Ridge (One@Kent Ridge)","lng":103.78469,"lat":1.29351},{"name":"Suntec City Mall","lng":103.86033,"lat":1.29486},{"name":"Paya Lebar Square","lng":103.89258,"lat":1.31881},{"name":"Kitchener Complex","lng":103.86201,"lat":1.30833},{"name":"Compass One","lng":103.89507,"lat":1.39205},{"name":"Viva Business Park (ESR BizPark @ Chai Chee)","lng":103.92212,"lat":1.32298},{"name":"Loyang Point","lng":103.96463,"lat":1.36707},{"name":"West Coast Community Centre","lng":103.76483,"lat":1.30265},{"name":"Marina Bay Link Mall","lng":103.85477,"lat":1.27992},{"name":"Kebun Baru Community Club","lng":103.83761,"lat":1.37301},{"name":"Changi Airport Terminal 4 Transit","lng":103.98364,"lat":1.33815},{"name":"Heartbeat @ Bedok","lng":103.93181,"lat":1.32662},{"name":"Yishun Town Square","lng":103.83626,"lat":1.42626},{"name":"Marsiling Mall","lng":103.77988,"lat":1.43354},{"name":"NEX","lng":103.87186,"lat":1.35068},{"name":"Changi Airport Terminal 1 Viewing Mall East","lng":103.99061,"lat":1.36129},{"name":"HillV2","lng":103.76417,"lat":1.36267},{"name":"Tiong Bahru Plaza","lng":103.82694,"lat":1.28646},{"name":"Marina Square","lng":103.85703,"lat":1.29157},{"name":"HomeTeamNS Khatib","lng":103.8311,"lat":1.41471},{"name":"Waterway Point","lng":103.90213,"lat":1.40641},{"name":"ARTRA","lng":103.81655,"lat":1.29013},{"name":"Fernvale Woods","lng":103.87119,"lat":1.39184},{"name":"Keat Hong Community Club","lng":103.74495,"lat":1.3841},{"name":"Eastpoint Mall","lng":103.95302,"lat":1.34271},{"name":"The Clementi Mall","lng":103.76427,"lat":1.31497},{"name":"Buona Vista Community Club","lng":103.79264,"lat":1.30918},{"name":"Hougang RiverCourt","lng":103.89491,"lat":1.36275},{"name":"West Mall","lng":103.74917,"lat":1.34992},{"name":"United Square Shopping Centre","lng":103.84367,"lat":1.31743},{"name":"KINEX","lng":103.89455,"lat":1.31474},{"name":"Wisteria Mall","lng":103.84127,"lat":1.41795},{"name":"HomeTeamNS Bedok","lng":103.91933,"lat":1.3416},{"name":"Junction 9","lng":103.84166,"lat":1.43312},{"name":"Woodlands North Coast","lng":103.79138,"lat":1.44654},{"name":"Shaw Plaza (Twin Heights)","lng":103.851,"lat":1.32525},{"name":"YewTee Point","lng":103.74644,"lat":1.39697},{"name":"SAFRA Choa Chu Kang","lng":103.74723,"lat":1.38858},{"name":"Tampines Mart","lng":103.95991,"lat":1.35437},{"name":"Changi Airport Terminal 4 (Departure/Check-In Hall)","lng":103.98364,"lat":1.33815},{"name":"Grantral Mall @ Macpherson","lng":103.88753,"lat":1.33372},{"name":"Boat Quay","lng":103.84968,"lat":1.28585},{"name":"Changi City Point","lng":103.96295,"lat":1.33408},{"name":"Anchorvale Village","lng":103.88844,"lat":1.39679},{"name":"New Tech Park (NTP+)","lng":103.8607,"lat":1.35206},{"name":"Fairprice Hub","lng":103.67841,"lat":1.32562},{"name":"Pasir Ris East Community Club","lng":103.95918,"lat":1.3688},{"name":"Chinatown Point","lng":103.84502,"lat":1.28534},{"name":"Tampines Changkat Community Club","lng":103.94755,"lat":1.34585},{"name":"Punggol Coast Mall","lng":103.91061,"lat":1.41477},{"name":"The Rail Mall","lng":103.76765,"lat":1.35923},{"name":"Tampines North Community Club","lng":103.9466,"lat":1.35736},{"name":"Tengah Community Club","lng":103.73465,"lat":1.35679},{"name":"Changi Airport Terminal 2","lng":103.98915,"lat":1.35525},{"name":"Lentor Central (Lentor Modern)","lng":103.83457,"lat":1.38551},{"name":"Link@896 Dunearn Road","lng":103.78372,"lat":1.3367},{"name":"Woodlands Community Club","lng":103.78824,"lat":1.43982}]