[{"name": "Bukit Merah East Neighbourhood Police Centre", "lng": 103.83961, "lat": 1.27881, "kind": "Neighbourhood Police Centre"}, {"name": "Criminal Investigation Department", "lng": 103.83916, "lat": 1.27847, "kind": "SPF unit"}, {"name": "Central Narcotics Bureau", "lng": 103.8396, "lat": 1.2781, "kind": "SPF unit"}, {"name": "Aljunied Neighbourhood Police Post", "lng": 103.8793, "lat": 1.33577, "kind": "Neighbourhood Police Post"}, {"name": "Ang Mo Kio North Neighbourhood Police Centre", "lng": 103.84508, "lat": 1.38494, "kind": "Neighbourhood Police Centre"}, {"name": "Ang Mo Kio South Neighbourhood Police Centre", "lng": 103.85165, "lat": 1.36991, "kind": "Neighbourhood Police Centre"}, {"name": "Ayer Rajah Neighbourhood Police Post", "lng": 103.74167, "lat": 1.3211, "kind": "Neighbourhood Police Post"}, {"name": "Bedok Neighbourhood Police Post", "lng": 103.93602, "lat": 1.32098, "kind": "Neighbourhood Police Post"}, {"name": "Bedok North Neighbourhood Police Centre", "lng": 103.93706, "lat": 1.33271, "kind": "Neighbourhood Police Centre"}, {"name": "Bedok South Neighbourhood Police Centre", "lng": 103.91982, "lat": 1.32371, "kind": "Neighbourhood Police Centre"}, {"name": "Bishan Neighbourhood Police Post", "lng": 103.85031, "lat": 1.34817, "kind": "Neighbourhood Police Post"}, {"name": "Boon Lay Neighbourhood Police Post", "lng": 103.71296, "lat": 1.34764, "kind": "Neighbourhood Police Post"}, {"name": "Boon Teck Neighbourhood Police Post", "lng": 103.84523, "lat": 1.3424, "kind": "Neighbourhood Police Post"}, {"name": "Bukit Batok Neighbourhood Police Post", "lng": 103.74792, "lat": 1.34806, "kind": "Neighbourhood Police Post"}, {"name": "Bukit Merah West Neighbourhood Police Centre", "lng": 103.82328, "lat": 1.28561, "kind": "Neighbourhood Police Centre"}, {"name": "Bukit Panjang Neighbourhood Police Centre", "lng": 103.77153, "lat": 1.38674, "kind": "Neighbourhood Police Centre"}, {"name": "Bukit Panjang South Neighbourhood Police Post", "lng": 103.77111, "lat": 1.37684, "kind": "Neighbourhood Police Post"}, {"name": "Bukit Timah Neighbourhood Police Post", "lng": 103.77459, "lat": 1.33958, "kind": "Neighbourhood Police Post"}, {"name": "Buona Vista Neighbourhood Police Post", "lng": 103.7932, "lat": 1.30936, "kind": "Neighbourhood Police Post"}, {"name": "Cairnhill Neighbourhood Police Post", "lng": 103.85145, "lat": 1.31389, "kind": "Neighbourhood Police Post"}, {"name": "Chai Chee Neighbourhood Police Post", "lng": 103.92604, "lat": 1.32485, "kind": "Neighbourhood Police Post"}, {"name": "Changi Neighbourhood Police Centre", "lng": 103.9548, "lat": 1.34453, "kind": "Neighbourhood Police Centre"}, {"name": "Changkat Neighbourhood Police Post", "lng": 103.94922, "lat": 1.34739, "kind": "Neighbourhood Police Post"}, {"name": "Choa Chu Kang Neighbourhood Police Centre", "lng": 103.74496, "lat": 1.39474, "kind": "Neighbourhood Police Centre"}, {"name": "Choa Chu Kang Neighbourhood Police Post", "lng": 103.7518, "lat": 1.37935, "kind": "Neighbourhood Police Post"}, {"name": "Chong Pang Neighbourhood Police Post", "lng": 103.82996, "lat": 1.43114, "kind": "Neighbourhood Police Post"}, {"name": "Clementi Neighbourhood Police Post", "lng": 103.7638, "lat": 1.31197, "kind": "Neighbourhood Police Post"}, {"name": "Commercial Affairs Department", "lng": 103.83925, "lat": 1.27851, "kind": "SPF unit"}, {"name": "Commonwealth Neighbourhood Police Post", "lng": 103.79875, "lat": 1.30648, "kind": "Neighbourhood Police Post"}, {"name": "Dover Neighbourhood Police Post", "lng": 103.78232, "lat": 1.3038, "kind": "Neighbourhood Police Post"}, {"name": "Eunos Neighbourhood Police Post", "lng": 103.91495, "lat": 1.3341, "kind": "Neighbourhood Police Post"}, {"name": "Geylang Neighbourhood Police Post", "lng": 103.8908, "lat": 1.32628, "kind": "Neighbourhood Police Post"}, {"name": "Geylang Serai Neighbourhood Police Post", "lng": 103.88403, "lat": 1.32037, "kind": "Neighbourhood Police Post"}, {"name": "Hong Kah North Neighbourhood Police Post", "lng": 103.74931, "lat": 1.35996, "kind": "Neighbourhood Police Post"}, {"name": "Hong Kah South Neighbourhood Police Post", "lng": 103.71985, "lat": 1.34853, "kind": "Neighbourhood Police Post"}, {"name": "Hougang Neighbourhood Police Post", "lng": 103.89921, "lat": 1.37295, "kind": "Neighbourhood Police Post"}, {"name": "Joo Chiat Neighbourhood Police Post", "lng": 103.9015, "lat": 1.30991, "kind": "Neighbourhood Police Post"}, {"name": "Jurong East Neighbourhood Police Centre", "lng": 103.73723, "lat": 1.34013, "kind": "Neighbourhood Police Centre"}, {"name": "Jurong Neighbourhood Police Post", "lng": 103.723, "lat": 1.32855, "kind": "Neighbourhood Police Post"}, {"name": "Jurong West Neighbourhood Police Centre", "lng": 103.71446, "lat": 1.34933, "kind": "Neighbourhood Police Centre"}, {"name": "Kaki Bukit Neighbourhood Police Post", "lng": 103.92974, "lat": 1.33415, "kind": "Neighbourhood Police Post"}, {"name": "Kallang Neighbourhood Police Post", "lng": 103.86107, "lat": 1.32049, "kind": "Neighbourhood Police Post"}, {"name": "Kampong Glam Neighbourhood Police Post", "lng": 103.86342, "lat": 1.30396, "kind": "Neighbourhood Police Post"}, {"name": "Kampong Java Neighbourhood Police Centre", "lng": 103.84647, "lat": 1.31191, "kind": "Neighbourhood Police Centre"}, {"name": "Kampong Kembangan Neighbourhood Police Post", "lng": 103.91165, "lat": 1.32357, "kind": "Neighbourhood Police Post"}, {"name": "Kampong Ubi Neighbourhood Police Post", "lng": 103.9032, "lat": 1.32186, "kind": "Neighbourhood Police Post"}, {"name": "Kebun Baru Neighbourhood Police Post", "lng": 103.83698, "lat": 1.37082, "kind": "Neighbourhood Police Post"}, {"name": "Kim Keat Neighbourhood Police Post", "lng": 103.85949, "lat": 1.33696, "kind": "Neighbourhood Police Post"}, {"name": "Kim Seng Neighbourhood Police Post", "lng": 103.82814, "lat": 1.28885, "kind": "Neighbourhood Police Post"}, {"name": "Kolam Ayer Neighbourhood Police Post", "lng": 103.87103, "lat": 1.32195, "kind": "Neighbourhood Police Post"}, {"name": "Marina Bay Neighbourhood Police Centre", "lng": 103.84906, "lat": 1.27497, "kind": "Neighbourhood Police Centre"}, {"name": "Marine Parade Neighbourhood Police Centre", "lng": 103.91445, "lat": 1.30622, "kind": "Neighbourhood Police Centre"}, {"name": "Marine Parade Neighbourhood Police Post", "lng": 103.90697, "lat": 1.30355, "kind": "Neighbourhood Police Post"}, {"name": "Marsiling Neighbourhood Police Post", "lng": 103.77829, "lat": 1.44235, "kind": "Neighbourhood Police Post"}, {"name": "Moulmein Neighbourhood Police Post", "lng": 103.85054, "lat": 1.32872, "kind": "Neighbourhood Police Post"}, {"name": "Nanyang Neighbourhood Police Centre", "lng": 103.70235, "lat": 1.35119, "kind": "Neighbourhood Police Centre"}, {"name": "Nee Soon South Neighbourhood Police Post", "lng": 103.83335, "lat": 1.41881, "kind": "Neighbourhood Police Post"}, {"name": "Orchard Neighbourhood Police Centre", "lng": 103.83985, "lat": 1.29896, "kind": "Neighbourhood Police Centre"}, {"name": "Pasir Ris Neighbourhood Police Centre", "lng": 103.95967, "lat": 1.36846, "kind": "Neighbourhood Police Centre"}, {"name": "Paya Lebar Neighbourhood Police Post", "lng": 103.88877, "lat": 1.35287, "kind": "Neighbourhood Police Post"}, {"name": "Police National Service Department", "lng": 103.83424, "lat": 1.32978, "kind": "SPF unit"}, {"name": "Potong Pasir Neighbourhood Police Post", "lng": 103.86691, "lat": 1.3331, "kind": "Neighbourhood Police Post"}, {"name": "Public Affairs Department", "lng": 103.84516, "lat": 1.32415, "kind": "SPF unit"}, {"name": "Public Transport Security Command TransCom", "lng": 103.89081, "lat": 1.32617, "kind": "SPF unit"}, {"name": "Queenstown Neighbourhood Police Centre", "lng": 103.80318, "lat": 1.28822, "kind": "Neighbourhood Police Centre"}, {"name": "Radin Mas Neighbourhood Police Post", "lng": 103.82054, "lat": 1.27699, "kind": "Neighbourhood Police Post"}, {"name": "River Valley Neighbourhood Police Post", "lng": 103.82634, "lat": 1.29171, "kind": "Neighbourhood Police Post"}, {"name": "Rochor Neighbourhood Police Centre", "lng": 103.85427, "lat": 1.30766, "kind": "Neighbourhood Police Centre"}, {"name": "Sembawang Neighbourhood Police Centre", "lng": 103.81965, "lat": 1.44528, "kind": "Neighbourhood Police Centre"}, {"name": "Serangoon Neighbourhood Police Centre", "lng": 103.87037, "lat": 1.35161, "kind": "Neighbourhood Police Centre"}, {"name": "Serangoon North Neighbourhood Police Post", "lng": 103.87121, "lat": 1.3699, "kind": "Neighbourhood Police Post"}, {"name": "Tampines East Neighbourhood Police Post", "lng": 103.95114, "lat": 1.35331, "kind": "Neighbourhood Police Post"}, {"name": "Tampines North Neighbourhood Police Post", "lng": 103.95435, "lat": 1.35884, "kind": "Neighbourhood Police Post"}, {"name": "Tanah Merah Neighbourhood Police Post", "lng": 103.94227, "lat": 1.32344, "kind": "Neighbourhood Police Post"}, {"name": "Tanjong Pagar Neighbourhood Police Post", "lng": 103.82996, "lat": 1.27731, "kind": "Neighbourhood Police Post"}, {"name": "Teck Ghee Neighbourhood Police Post", "lng": 103.8484, "lat": 1.36512, "kind": "Neighbourhood Police Post"}, {"name": "Thomson Neighbourhood Police Post", "lng": 103.83747, "lat": 1.35499, "kind": "Neighbourhood Police Post"}, {"name": "Toa Payoh Neighbourhood Police Centre", "lng": 103.85048, "lat": 1.33453, "kind": "Neighbourhood Police Centre"}, {"name": "Traffic Police Department", "lng": 103.89135, "lat": 1.33018, "kind": "SPF unit"}, {"name": "Training Command", "lng": 103.72153, "lat": 1.37395, "kind": "SPF unit"}, {"name": "West Coast Neighbourhood Police Post", "lng": 103.7636, "lat": 1.30561, "kind": "Neighbourhood Police Post"}, {"name": "Whampoa Neighbourhood Police Post", "lng": 103.85857, "lat": 1.32541, "kind": "Neighbourhood Police Post"}, {"name": "Woodlands East Neighbourhood Police Centre", "lng": 103.80236, "lat": 1.43889, "kind": "Neighbourhood Police Centre"}, {"name": "Yishun North Neighbourhood Police Centre", "lng": 103.84028, "lat": 1.42934, "kind": "Neighbourhood Police Centre"}, {"name": "Sengkang Neighbourhood Police Centre", "lng": 103.89384, "lat": 1.39296, "kind": "Neighbourhood Police Centre"}, {"name": "Telok Blangah Neighbourhood Police Post", "lng": 103.8097, "lat": 1.27351, "kind": "Neighbourhood Police Post"}, {"name": "Bukit Panjang North Neighbourhood Police Post", "lng": 103.77402, "lat": 1.44212, "kind": "Neighbourhood Police Post"}, {"name": "Police Headquaters", "lng": 103.84541, "lat": 1.32428, "kind": "SPF unit"}, {"name": "Geylang Neighbourhood Police Centre", "lng": 103.88613, "lat": 1.31096, "kind": "Neighbourhood Police Centre"}, {"name": "Tampines Neighbourhood Police Centre", "lng": 103.93871, "lat": 1.34626, "kind": "Neighbourhood Police Centre"}, {"name": "Woodleigh Neighbourhood Police Centre", "lng": 103.87134, "lat": 1.3381, "kind": "Neighbourhood Police Centre"}, {"name": "Bishan Neighbourhood Police Centre", "lng": 103.84772, "lat": 1.35779, "kind": "Neighbourhood Police Centre"}, {"name": "Police Cantonment Complex", "lng": 103.83951, "lat": 1.27845, "kind": "SPF unit"}, {"name": "Hougang Neighbourhood Police Centre", "lng": 103.88498, "lat": 1.37431, "kind": "Neighbourhood Police Centre"}, {"name": "Airport Police Division", "lng": 103.98088, "lat": 1.34321, "kind": "Division HQ"}, {"name": "Bukit Batok Neighbourhood Police Centre", "lng": 103.75857, "lat": 1.34908, "kind": "Neighbourhood Police Centre"}, {"name": "Kreta Ayer Neighbourhood Police Post", "lng": 103.84712, "lat": 1.28657, "kind": "Neighbourhood Police Post"}, {"name": "Special Operations Command", "lng": 103.80075, "lat": 1.29517, "poly": [[[103.79943, 1.29496], [103.79981, 1.29597], [103.80027, 1.29689], [103.80098, 1.29645], [103.80154, 1.29575], [103.80159, 1.29553], [103.80209, 1.29492], [103.80123, 1.29347], [103.79943, 1.29496]]], "kind": "SPF unit"}, {"name": "Jurong Police Division HQ", "lng": 103.70218, "lat": 1.35119, "poly": [[[103.70175, 1.35061], [103.70269, 1.3508], [103.70276, 1.35085], [103.70279, 1.35096], [103.7027, 1.35119], [103.70216, 1.35181], [103.7019, 1.35204], [103.70184, 1.35198], [103.70189, 1.35175], [103.70169, 1.3506], [103.70175, 1.35061]]], "kind": "Division HQ"}, {"name": "Interpol", "lng": 103.8221, "lat": 1.30612, "kind": "SPF unit"}, {"name": "Pasir Panjang Neighbourhood Police Post", "lng": 103.79338, "lat": 1.27545, "kind": "Neighbourhood Police Post"}, {"name": "Clementi Police Division Headquarters", "lng": 103.76012, "lat": 1.32194, "kind": "Division HQ"}, {"name": "Woodlands Police Divisional HQ", "lng": 103.77884, "lat": 1.43351, "poly": [[[103.77916, 1.43298], [103.77854, 1.43287], [103.77854, 1.43409], [103.77919, 1.43409], [103.77915, 1.43389], [103.77916, 1.43298]]], "kind": "Division HQ"}, {"name": "Bukit Timah Neighbourhood Police Centre", "lng": 103.81239, "lat": 1.32273, "kind": "Neighbourhood Police Centre"}, {"name": "Siglap Neighbourhood Police Post", "lng": 103.92977, "lat": 1.31397, "kind": "Neighbourhood Police Post"}, {"name": "Sembawang Police Driving Circuit", "lng": 103.82611, "lat": 1.46056, "poly": [[[103.82466, 1.45913], [103.82524, 1.45936], [103.82559, 1.45971], [103.8263, 1.45976], [103.82696, 1.45971], [103.82724, 1.46023], [103.8273, 1.461], [103.8274, 1.46123], [103.82596, 1.46198], [103.82478, 1.45986], [103.82481, 1.45979], [103.82473, 1.45965], [103.82483, 1.45946], [103.82466, 1.45913]]], "kind": "SPF unit"}, {"name": "Pulau Ubin Police Post", "lng": 103.97158, "lat": 1.40264, "kind": "Neighbourhood Police Post"}, {"name": "Pulau Ubin Police Coast Guard", "lng": 103.97171, "lat": 1.40268, "kind": "Coast Guard"}, {"name": "Police Coast Guard Loyang Regional Base", "lng": 103.97166, "lat": 1.38636, "kind": "Coast Guard"}, {"name": "Police Coast Guard Gul Base", "lng": 103.67148, "lat": 1.30699, "kind": "Coast Guard"}, {"name": "Police Coast Guard Lim Chu Kang Base", "lng": 103.70708, "lat": 1.44519, "kind": "Coast Guard"}, {"name": "Police Coast Guard Headquarters Brani Base", "lng": 103.8338, "lat": 1.25609, "kind": "Coast Guard"}, {"name": "Serangoon Gardens Neighbourhood Police Post", "lng": 103.86643, "lat": 1.36344, "kind": "Neighbourhood Police Post"}, {"name": "Security Command", "lng": 103.86021, "lat": 1.33807, "poly": [[[103.8599, 1.33855], [103.86051, 1.33855], [103.8605, 1.33758], [103.86, 1.33758], [103.85994, 1.33762], [103.8599, 1.33855]]], "kind": "SPF unit"}, {"name": "Punggol Neighbourhood Police Centre", "lng": 103.91405, "lat": 1.39813, "poly": [[[103.91393, 1.39805], [103.91377, 1.39783], [103.91367, 1.3979], [103.91403, 1.3984], [103.91445, 1.3981], [103.91435, 1.39796], [103.91426, 1.3981], [103.91393, 1.39805]]], "kind": "Neighbourhood Police Centre"}, {"name": "Nee Soon South NPP", "lng": 103.83499, "lat": 1.41527, "kind": "SPF unit"}, {"name": "Internal Security Department", "lng": 103.84421, "lat": 1.32349, "poly": [[[103.84385, 1.32406], [103.84385, 1.32376], [103.84415, 1.32378], [103.84415, 1.32371], [103.84385, 1.32371], [103.84385, 1.32294], [103.84415, 1.32294], [103.8443, 1.32285], [103.84459, 1.32285], [103.84459, 1.32319], [103.84454, 1.32319], [103.84454, 1.32377], [103.84424, 1.32377], [103.84424, 1.32394], [103.84454, 1.32394], [103.84453, 1.32418], [103.84441, 1.32424], [103.84385, 1.32406]]], "kind": "SPF unit"}, {"name": "Police K-9 Unit", "lng": 103.74229, "lat": 1.39722, "poly": [[[103.74284, 1.3982], [103.74249, 1.39824], [103.74252, 1.39848], [103.74245, 1.39852], [103.74247, 1.3987], [103.74172, 1.39879], [103.74284, 1.3982]], [[103.74147, 1.39691], [103.74251, 1.39655], [103.74261, 1.3969], [103.74265, 1.39721], [103.74261, 1.39723], [103.74274, 1.39749], [103.74284, 1.3982], [103.74147, 1.39691]]], "kind": "SPF unit"}]