[{"name":"National Gallery Singapore","lng":103.85136,"lat":1.29},{"name":"Sultan Mosque (Masjid Sultan) Singapore","lng":103.85917,"lat":1.302},{"name":"Sri Mariamman Temple: Hindu Temple in Singapore","lng":103.84538,"lat":1.282},{"name":"Armenian Church in Singapore","lng":103.84966,"lat":1.293},{"name":"CHIJMES Singapore","lng":103.85168,"lat":1.295},{"name":"St Andrew\u00e2\u20ac\u2122s Cathedral- Singapore Architecture Landmark","lng":103.85231,"lat":1.292},{"name":"Kreta Ayer Square","lng":103.84359,"lat":1.2812},{"name":"Albert Mall Trishaw Park","lng":103.85348,"lat":1.29955},{"name":"Chinatown Food Street","lng":103.84379,"lat":1.28255},{"name":"Chinatown Heritage Centre, Singapore","lng":103.84435,"lat":1.284},{"name":"Thian Hock Keng Temple, Singapore","lng":103.84763,"lat":1.281},{"name":"Eurasian Heritage Centre: Singapore Attraction","lng":103.89942,"lat":1.31},{"name":"Shophouses","lng":103.83734,"lat":1.277},{"name":"Capitol Building Singapore","lng":103.85157,"lat":1.294},{"name":"Esplanade Theatre","lng":103.85528,"lat":1.29},{"name":"Gardens by the Bay","lng":103.86361,"lat":1.282},{"name":"The Interlace","lng":103.80305,"lat":1.282},{"name":"PARKROYAL on Pickering","lng":103.84652,"lat":1.286},{"name":"Lasalle College of the Arts","lng":103.8516,"lat":1.303},{"name":"Kranji War Memorial Landmark in Singapore","lng":103.75749,"lat":1.419},{"name":"Indian National Army (INA) Monument in Singapore","lng":103.85422,"lat":1.29},{"name":"Reflections at Bukit Chandu: Singapore War Memorial","lng":103.79433,"lat":1.28},{"name":"The Cenotaph - a Singapore War Memorial Landmark","lng":103.85384,"lat":1.29},{"name":"The Civilian War Memorial park in Singapore","lng":103.85462,"lat":1.293},{"name":"Sri Veeramakaliamman Temple: Hindu Temple in Singapore","lng":103.85258,"lat":1.308},{"name":"Maghain Aboth Synagogue","lng":103.85081,"lat":1.298},{"name":"Old Supreme Court Singapore","lng":103.85128,"lat":1.29},{"name":"SIT Flats Singapore","lng":103.8336,"lat":1.284},{"name":"Lau Pa Sat Singapore","lng":103.85044,"lat":1.281},{"name":"Malay Heritage Centre, Singapore","lng":103.85986,"lat":1.303},{"name":"Peranakan Museum Singapore: History & Culture","lng":103.8492,"lat":1.294},{"name":"Raffles Singapore","lng":103.85404,"lat":1.296},{"name":"Gillman Barracks \u00e2\u20ac\u201c YourSingapore","lng":103.80459,"lat":1.278},{"name":"ArtScience Museum Singapore","lng":103.85929,"lat":1.286},{"name":"SAM at 8Q & Singapore Art Museum","lng":103.85168,"lat":1.297},{"name":"Jamae Mosque (Masjid Chulia) Singapore","lng":103.84554,"lat":1.283},{"name":"Institute of Contemporary Arts Singapore","lng":103.8516,"lat":1.303},{"name":"Singapore Flyer","lng":103.86314,"lat":1.289},{"name":"Marina Bay Sands\u00c2\u00ae","lng":103.86081,"lat":1.283},{"name":"Marina Barrage","lng":103.87159,"lat":1.281},{"name":"Henderson Waves Bridge","lng":103.81525,"lat":1.276},{"name":"Pinnacle@Duxton","lng":103.84142,"lat":1.275},{"name":"Hajjah Fatimah Mosque","lng":103.86285,"lat":1.303},{"name":"Haw Par Villa: Singapore Theme Park","lng":103.78314,"lat":1.286},{"name":"NUS Baba House - Singapore Peranakan Architecture","lng":103.83731,"lat":1.277},{"name":"Hong San See Temple Singapore","lng":103.84122,"lat":1.293},{"name":"Chinese Heritage Centre, Singapore","lng":103.68398,"lat":1.344},{"name":"Kampong Glam & Malay Culture in Singapore","lng":103.8595,"lat":1.302},{"name":"Contemporary Arts Center","lng":103.8045,"lat":1.275},{"name":"The Substation, Singapore Contemporary Art Centre","lng":103.84934,"lat":1.294},{"name":"Red Dot Design Museum, Singapore","lng":103.84572,"lat":1.278},{"name":"Singapore Art Museum","lng":103.85107,"lat":1.297},{"name":"Esplanade Theatres on the Bay","lng":103.85528,"lat":1.29},{"name":"National Design Centre, Singapore","lng":103.85351,"lat":1.299},{"name":"Victoria Theatre Singapore","lng":103.85164,"lat":1.288},{"name":"NUS University Museum, Singapore","lng":103.77269,"lat":1.302},{"name":"Sun Yat Sen Memorial Hall","lng":103.84692,"lat":1.328},{"name":"Asian Civilisations Museum & Singapore Museum","lng":103.85172,"lat":1.287},{"name":"National Museum of Singapore","lng":103.84883,"lat":1.297},{"name":"The Japanese Cemetery Park","lng":103.87584,"lat":1.364},{"name":"Dalhousie Obelisk, a Singapore Landmark","lng":103.85238,"lat":1.287},{"name":"Raffles Statue \u00e2\u20ac\u201c Sir Stamford Raffles Landing Site","lng":103.85084,"lat":1.288},{"name":"Singapore Philatelic Museum","lng":103.8487,"lat":1.293},{"name":"Old Ford Factory Singapore Museum","lng":103.76883,"lat":1.352},{"name":"Singapore Coins and Notes Museum & Museum Singapore","lng":103.84452,"lat":1.283},{"name":"Singapore City Gallery","lng":103.84513,"lat":1.28},{"name":"Changi Museum Singapore","lng":103.97403,"lat":1.362},{"name":"MINT Museum of Toys Singapore & Toy Museum","lng":103.85439,"lat":1.296},{"name":"Lim Bo Seng Memorial","lng":103.85303,"lat":1.288},{"name":"Universal Studios Singapore\u00e2\u201e\u00a2 Theme Park","lng":103.82381,"lat":1.254},{"name":"Singapore Science Centre","lng":103.73587,"lat":1.333},{"name":"Fuk Tak Chi Museum & Places of Interest","lng":103.84887,"lat":1.283},{"name":"Katong Antique House Singapore: Peranakan Heritage","lng":103.90714,"lat":1.307},{"name":"Chinese Garden Singapore","lng":103.73,"lat":1.339},{"name":"East Coast Park Singapore","lng":103.91219,"lat":1.301},{"name":"Fort Canning Park","lng":103.84651,"lat":1.295},{"name":"Kusu Island, Singapore","lng":103.86052,"lat":1.223},{"name":"Jurong Bird Park, Singapore: Attractions & Things to Do","lng":103.70644,"lat":1.319},{"name":"HortPark","lng":103.79972,"lat":1.279},{"name":"Adventure Cove Waterpark\u00e2\u201e\u00a2 Singapore","lng":103.81953,"lat":1.257},{"name":"Singapore River: History & Culture Tours","lng":103.84676,"lat":1.288},{"name":"Joo Chiat/Katong: Singapore Peranakan Neighbourhood","lng":103.90448,"lat":1.306},{"name":"Sentosa Island, Singapore: Leisure & Attractions","lng":103.82809,"lat":1.249},{"name":"Chinatown Singapore: History & Culture","lng":103.84377,"lat":1.282},{"name":"Buddha Tooth Relic Temple & Museum in Singapore","lng":103.84438,"lat":1.282},{"name":"Labrador Nature Reserve","lng":103.80194,"lat":1.266},{"name":"Marina Bay Singapore: Attractions & Things to do","lng":103.85645,"lat":1.28},{"name":"Marina Bay Sands, Singapore","lng":103.85899,"lat":1.284},{"name":"Chek Jawa","lng":103.96371,"lat":1.408},{"name":"Merlion Park, Singapore: Attractions & Things to Do","lng":103.85455,"lat":1.287},{"name":"Marina Bay Sands\u00c2\u00ae SkyPark","lng":103.86081,"lat":1.283},{"name":"Resorts World Sentosa, Singapore","lng":103.82033,"lat":1.257},{"name":"Singapore Garden & Singapore Park","lng":103.81759,"lat":1.281},{"name":"Sungei Buloh","lng":103.73015,"lat":1.447},{"name":"S.E.A. Aquarium","lng":103.81949,"lat":1.257},{"name":"Singapore Botanic Gardens","lng":103.81591,"lat":1.314},{"name":"Singapore Zoo: Attractions & Things to Do","lng":103.79302,"lat":1.404},{"name":"River Safari Singapore","lng":103.78942,"lat":1.404},{"name":"Cable Car Singapore & Mount Faber","lng":103.81921,"lat":1.271},{"name":"Night Safari, Singapore","lng":103.78806,"lat":1.402},{"name":"Pulau Ubin & Singapore Islands","lng":103.95926,"lat":1.414},{"name":"Little India Singapore: History & Culture","lng":103.84982,"lat":1.307},{"name":"Orchard Road, Singapore: Asia's Most Famous Shopping Street","lng":103.83249,"lat":1.304},{"name":"MacRitchie Singapore & Singapore Nature Reserve","lng":103.82235,"lat":1.345},{"name":"Civic District, Singapore","lng":103.85222,"lat":1.293},{"name":"HarbourFront, Singapore","lng":103.82057,"lat":1.265},{"name":"Bras Basah.Bugis, Singapore Cultural District","lng":103.85624,"lat":1.301}]