[{"name":"City Square Mall","lng":103.85662,"lat":1.31142},{"name":"Suntec City","lng":103.86033,"lat":1.29486},{"name":"Bishan SCK","lng":103.84252,"lat":1.35115},{"name":"Lucky Plaza","lng":103.83396,"lat":1.30451},{"name":"Novena Square 2","lng":103.84419,"lat":1.32044},{"name":"Bugis Village","lng":103.85544,"lat":1.30074},{"name":"Pasir Ris Mall","lng":103.94875,"lat":1.37382},{"name":"Tampines SCK","lng":103.93179,"lat":1.36532},{"name":"Century Square","lng":103.94381,"lat":1.35237},{"name":"Bedok Mall","lng":103.92926,"lat":1.32474},{"name":"Paya Lebar Square","lng":103.89258,"lat":1.31881},{"name":"NUS","lng":103.77403,"lat":1.304},{"name":"Jurong Point","lng":103.70669,"lat":1.33945},{"name":"Caltex Jurong Spring Drive Thru","lng":103.71475,"lat":1.3497},{"name":"Bukit Batok SCK","lng":103.75709,"lat":1.3393},{"name":"Woodlands North Coast","lng":103.79138,"lat":1.44654},{"name":"Caltex Yishun Drive Thru","lng":103.83301,"lat":1.4308},{"name":"Woodlands MRT","lng":103.78533,"lat":1.43681},{"name":"Anchorvale Village","lng":103.88844,"lat":1.39679},{"name":"Punggol Digital District","lng":103.91061,"lat":1.41477},{"name":"Ang Mo Kio Hub","lng":103.84869,"lat":1.36924},{"name":"Nex Mall","lng":103.87186,"lat":1.35068},{"name":"Waterway Point","lng":103.90213,"lat":1.40641},{"name":"Hougang Mall","lng":103.89388,"lat":1.37253},{"name":"Vivo City","lng":103.82207,"lat":1.26431}]