[{"name": "Watson's Personal Care Stores Pte Ltd (Bugis Junction)", "lng": 103.85541, "lat": 1.29911}, {"name": "Watson's Personal Care Stores Pte Ltd (Causeway Point)", "lng": 103.78569, "lat": 1.43601}, {"name": "Watson's Personal Care Stores Pte Ltd (City Square Mall)", "lng": 103.85642, "lat": 1.31131}, {"name": "Watson's Personal Care Stores Pte Ltd (Clementi Mall)", "lng": 103.76425, "lat": 1.31485}, {"name": "Watson's Personal Care Stores Pte Ltd (Compass One)", "lng": 103.89498, "lat": 1.39209}, {"name": "Watson's Personal Care Stores Pte Ltd (Great World City)", "lng": 103.83176, "lat": 1.2938}, {"name": "Watson's Personal Care Stores Pte Ltd (Heartbeat@bedok)", "lng": 103.93162, "lat": 1.32698}, {"name": "Watson's Personal Care Stores Pte Ltd (International Plaza)", "lng": 103.8457, "lat": 1.27574}, {"name": "Watson's Personal Care Stores Pte Ltd (Jem)", "lng": 103.74317, "lat": 1.3332}, {"name": "Watson's Personal Care Stores Pte Ltd (Jewel Changi Airport)", "lng": 103.98908, "lat": 1.36034}, {"name": "Watson's Personal Care Stores Pte Ltd (Junction 8)", "lng": 103.84843, "lat": 1.35017}, {"name": "Watson's Personal Care Stores Pte Ltd (Jurong Point)", "lng": 103.70646, "lat": 1.33983}, {"name": "Watson's Personal Care Stores Pte Ltd (Marina Bay Financial Centre)", "lng": 103.85337, "lat": 1.28024}, {"name": "Watson's Personal Care Stores Pte Ltd (Marina Bay Sands)", "lng": 103.85763, "lat": 1.28332}, {"name": "Watson's Personal Care Stores Pte Ltd (NEX)", "lng": 103.8717, "lat": 1.35044}, {"name": "Watson's Personal Care Stores Pte Ltd (Ngee Ann City)", "lng": 103.83468, "lat": 1.30242}, {"name": "Watson's Personal Care Stores Pte Ltd (North Point)", "lng": 103.83609, "lat": 1.42804}, {"name": "Watson's Personal Care Stores Pte Ltd (Novena Square)", "lng": 103.84366, "lat": 1.32021}, {"name": "Watson's Personal Care Stores Pte Ltd (Paragon)", "lng": 103.83524, "lat": 1.30372}, {"name": "Watson's Personal Care Stores Pte Ltd (Parkway Parade)", "lng": 103.90511, "lat": 1.30119}, {"name": "Watson's Personal Care Stores Pte Ltd (Paya Lebar Quarter)", "lng": 103.89272, "lat": 1.31752}, {"name": "Watson's Personal Care Stores Pte Ltd (Plaza Singapura)", "lng": 103.84505, "lat": 1.30075}, {"name": "Watson's Personal Care Stores Pte Ltd (Raffles City)", "lng": 103.85277, "lat": 1.29376}, {"name": "Watson's Personal Care Stores Pte Ltd (Suntec City)", "lng": 103.85768, "lat": 1.29488}, {"name": "Watson's Personal Care Stores Pte Ltd (Tampines Mall)", "lng": 103.94439, "lat": 1.35267}, {"name": "Watson's Personal Care Stores Pte Ltd (Toa Payoh HDB Hub)", "lng": 103.84797, "lat": 1.33298}, {"name": "Watson's Personal Care Stores Pte Ltd (United Square)", "lng": 103.84346, "lat": 1.31733}, {"name": "Watson's Personal Care Stores Pte Ltd (Vivo City)", "lng": 103.82159, "lat": 1.2639}, {"name": "Watson's Personal Care Stores Pte Ltd Ion Orchard", "lng": 103.8314, "lat": 1.30404}, {"name": "Woodlands Health Medical Centre Pharmacy", "lng": 103.79474, "lat": 1.42468}, {"name": "Woods Pharmacy Pte ltd", "lng": 103.84612, "lat": 1.28745}, {"name": "A.M. Pharmacy Pte Ltd", "lng": 103.84115, "lat": 1.30126}, {"name": "AIRPORT PHARMACY T4 South", "lng": 103.98348, "lat": 1.33801}, {"name": "Alchemy Pharmacy", "lng": 103.96462, "lat": 1.367}, {"name": "Alexandra Hospital Retail Pharmacy", "lng": 103.79944, "lat": 1.28812}, {"name": "Amber Compounding Pharmacy", "lng": 103.85335, "lat": 1.31359}, {"name": "CGH Pharmacy B", "lng": 103.94929, "lat": 1.34068}, {"name": "Child Guidance Clinic, Health Promotion Board", "lng": 103.83832, "lat": 1.27933}, {"name": "Clinic B Pharmacy", "lng": 103.88335, "lat": 1.38159}, {"name": "Community Wellness Clinic Queenstown Pharmacy", "lng": 103.80096, "lat": 1.29848}, {"name": "Essentials Pharmacy", "lng": 103.84385, "lat": 1.2855}, {"name": "Farrer Park Pharmacy", "lng": 103.85384, "lat": 1.31276}, {"name": "GLENEAGLES HOSPITAL", "lng": 103.81942, "lat": 1.30736}, {"name": "GRACE HEALTHCARE", "lng": 103.75153, "lat": 1.34974}, {"name": "Guardian Pharmacy ( Waterway Point)", "lng": 103.90199, "lat": 1.40654}, {"name": "Guardian Pharmacy (Admiralty Place)", "lng": 103.80149, "lat": 1.44042}, {"name": "Guardian Pharmacy (Ang Mo Kio 3)", "lng": 103.84723, "lat": 1.37041}, {"name": "Guardian Pharmacy (Ang Mo Kio Hub)", "lng": 103.8484, "lat": 1.36925}, {"name": "Guardian Pharmacy (Bedok Central)", "lng": 103.93186, "lat": 1.32457}, {"name": "Guardian Pharmacy (Bedok Mall)", "lng": 103.92918, "lat": 1.32479}, {"name": "Guardian Pharmacy (Bishan Place)", "lng": 103.84843, "lat": 1.35017}, {"name": "Guardian Pharmacy (Bugis Junction 3)", "lng": 103.85541, "lat": 1.29911}, {"name": "Guardian Pharmacy (Bukit Panjang Plaza)", "lng": 103.76396, "lat": 1.38052}, {"name": "Guardian Pharmacy (Causeway Point)", "lng": 103.78569, "lat": 1.43601}, {"name": "Guardian Pharmacy (Changi T1 Transit East)", "lng": 103.98971, "lat": 1.36249}, {"name": "Guardian Pharmacy (Changi T2 North)", "lng": 103.98875, "lat": 1.35519}, {"name": "Guardian Pharmacy (Changi T3 Basement 2 North)", "lng": 103.98517, "lat": 1.35437}, {"name": "Guardian Pharmacy (Chinatown Point 4)", "lng": 103.8447, "lat": 1.285}, {"name": "Guardian Pharmacy (City Square Mall)", "lng": 103.85642, "lat": 1.31131}, {"name": "Guardian Pharmacy (Clementi Mall)", "lng": 103.76425, "lat": 1.31485}, {"name": "Guardian Pharmacy (Compass One)", "lng": 103.89498, "lat": 1.39209}, {"name": "Guardian Pharmacy (Departure 3-South)", "lng": 103.98517, "lat": 1.35437}, {"name": "Guardian Pharmacy (Departure Transit West T1)", "lng": 103.98971, "lat": 1.36249}, {"name": "Guardian Pharmacy (Funan Mall)", "lng": 103.84998, "lat": 1.29124}, {"name": "Guardian Pharmacy (Gleneagles)", "lng": 103.82012, "lat": 1.30706}, {"name": "Guardian Pharmacy (Great World City)", "lng": 103.83176, "lat": 1.2938}, {"name": "Guardian Pharmacy (H205)", "lng": 103.88508, "lat": 1.3595}, {"name": "Guardian Pharmacy (Harbourfront Centre)", "lng": 103.81873, "lat": 1.26206}, {"name": "Guardian Pharmacy (Hillview Rise)", "lng": 103.76417, "lat": 1.36267}, {"name": "Guardian Pharmacy (Holland Shopping Centre)", "lng": 103.79535, "lat": 1.31026}, {"name": "Guardian Pharmacy (Hougang Mall)", "lng": 103.89366, "lat": 1.37231}, {"name": "Guardian Pharmacy (IMM Building)", "lng": 103.74673, "lat": 1.3349}, {"name": "Guardian Pharmacy (ION)", "lng": 103.8314, "lat": 1.30404}, {"name": "Guardian Pharmacy (Income @ Raffles)", "lng": 103.85245, "lat": 1.28413}, {"name": "Guardian Pharmacy (JEM)", "lng": 103.74317, "lat": 1.3332}, {"name": "Guardian Pharmacy (Jelita)", "lng": 103.78585, "lat": 1.31755}, {"name": "Guardian Pharmacy (Jurong Point 2)", "lng": 103.70535, "lat": 1.33932}, {"name": "Guardian Pharmacy (Kallang Wave Mall)", "lng": 103.87275, "lat": 1.30384}, {"name": "Guardian Pharmacy (LOT 1)", "lng": 103.74495, "lat": 1.38507}, {"name": "Guardian Pharmacy (Marina Bay Sands)", "lng": 103.85763, "lat": 1.28332}, {"name": "Guardian Pharmacy (Mount Elizabeth Medical Level 3)", "lng": 103.83543, "lat": 1.30515}, {"name": "Guardian Pharmacy (New Plaza Singapura )", "lng": 103.84505, "lat": 1.30075}, {"name": "Guardian Pharmacy (New Suntec City)", "lng": 103.85768, "lat": 1.29488}, {"name": "Guardian Pharmacy (Northpoint)", "lng": 103.83578, "lat": 1.4297}, {"name": "Guardian Pharmacy (Novena Hospital)", "lng": 103.84421, "lat": 1.32214}, {"name": "Guardian Pharmacy (Novena Square)", "lng": 103.84366, "lat": 1.32021}, {"name": "Guardian Pharmacy (Oasis Terrace)", "lng": 103.91296, "lat": 1.4026}, {"name": "Guardian Pharmacy (Our Tampines Hub)", "lng": 103.93968, "lat": 1.3535}, {"name": "Guardian Pharmacy (Paragon)", "lng": 103.83524, "lat": 1.30372}, {"name": "Guardian Pharmacy (Parkway Parade)", "lng": 103.90511, "lat": 1.30119}, {"name": "Guardian Pharmacy (Pasir Ris Mall)", "lng": 103.9486, "lat": 1.37396}, {"name": "Guardian Pharmacy (Paya Lebar Quarter)", "lng": 103.89272, "lat": 1.31752}, {"name": "Guardian Pharmacy (Plantation Plaza)", "lng": 103.73413, "lat": 1.35758}, {"name": "Guardian Pharmacy (Raffles City)", "lng": 103.85277, "lat": 1.29376}, {"name": "Guardian Pharmacy (Raffles Place MRT 3)", "lng": 103.85138, "lat": 1.28433}, {"name": "Guardian Pharmacy (Seletar Mall)", "lng": 103.87607, "lat": 1.39139}, {"name": "National University Hospital - Kent Ridge Wing Pharmacy", "lng": 103.78271, "lat": 1.29395}, {"name": "Ng Teng Fong General Hospital Outpatient & Retail Pharmacy", "lng": 103.74387, "lat": 1.33553}, {"name": "Nishino Pharmacy (Shaw House)", "lng": 103.83151, "lat": 1.30581}, {"name": "Nishino Pharmacy (Takashimaya)", "lng": 103.83468, "lat": 1.30242}, {"name": "P & L PHARMACY PTE LTD", "lng": 103.82935, "lat": 1.30756}, {"name": "PHARMACY @ CGH MEDICAL CENTRE", "lng": 103.9493, "lat": 1.33946}, {"name": "Parkway East Hospital Pharmacy", "lng": 103.90876, "lat": 1.31509}, {"name": "Pharmacy Services Centre, NHG (Blk 9)", "lng": 103.88335, "lat": 1.38159}, {"name": "Pharmacy@IB, CGH (The Integrated Building)", "lng": 103.94929, "lat": 1.34068}, {"name": "Poisson Pharmacy", "lng": 103.85565, "lat": 1.31428}, {"name": "Princeton Pharmacy (S) Pte Ltd", "lng": 103.76354, "lat": 1.32518}, {"name": "Raffles Health", "lng": 103.85681, "lat": 1.30126}, {"name": "SGH BOWYER BLOCK PHARMACY", "lng": 103.83072, "lat": 1.27994}, {"name": "SGH OUTPATIENT PHARMACY (BLK 3)", "lng": 103.83072, "lat": 1.27994}, {"name": "SGH Retail Pharmacy (Blk 4)", "lng": 103.83072, "lat": 1.27994}, {"name": "SINGAPORE NATIONAL EYE CENTRE PTE LTD", "lng": 103.83574, "lat": 1.28108}, {"name": "SINGHEALTH POLY-OUTRAM", "lng": 103.83832, "lat": 1.27933}, {"name": "SMITH PHARMACY PTE LTD", "lng": 103.81345, "lat": 1.28745}, {"name": "ST ANDREW'S COMMUNITY HOSPITAL PHARMACY", "lng": 103.94876, "lat": 1.34178}, {"name": "ST LUKE'S HOSPITAL BLOCK A", "lng": 103.74188, "lat": 1.34954}, {"name": "Sengkang General Hospital Outpatient Pharmacy", "lng": 103.893, "lat": 1.3943}, {"name": "Singhealth Poly - Bedok", "lng": 103.93162, "lat": 1.32698}, {"name": "Singhealth Poly - Bukit Merah", "lng": 103.81694, "lat": 1.28388}, {"name": "Singhealth Poly - Marine Parade", "lng": 103.90774, "lat": 1.30248}, {"name": "Singhealth Poly - Pasir Ris", "lng": 103.94818, "lat": 1.3735}, {"name": "Singhealth Poly - Punggol", "lng": 103.91296, "lat": 1.4026}, {"name": "Singhealth Poly - Sengkang", "lng": 103.89391, "lat": 1.39279}, {"name": "Singhealth Poly - Tampines", "lng": 103.94585, "lat": 1.35731}, {"name": "Singhealth Poly-Eunos", "lng": 103.90571, "lat": 1.31733}, {"name": "Singhealth Poly-Tampines North", "lng": 103.93756, "lat": 1.36331}, {"name": "Specialist Compounding Pharmacy Pte Ltd", "lng": 103.79179, "lat": 1.30382}, {"name": "TAN TOCK SENG HOSPITAL PTE LTD (EMERGENCY PHARMACY)", "lng": 103.84539, "lat": 1.32172}, {"name": "Tan Tock Seng Hospital (Ang Mo Kio Specialist Centre)", "lng": 103.84718, "lat": 1.37232}, {"name": "Guardian Pharmacy (Serangoon Garden)", "lng": 103.86545, "lat": 1.36414}, {"name": "Guardian Pharmacy (Serangoon NEX)", "lng": 103.8717, "lat": 1.35044}, {"name": "Guardian Pharmacy (Star Vista)", "lng": 103.78821, "lat": 1.30685}, {"name": "Guardian Pharmacy (Sun Plaza 2)", "lng": 103.81946, "lat": 1.44823}, {"name": "Guardian Pharmacy (Takashimaya S. C. )", "lng": 103.83468, "lat": 1.30242}, {"name": "Guardian Pharmacy (Tampines MRT)", "lng": 103.94496, "lat": 1.35355}, {"name": "Guardian Pharmacy (Tampines Mall)", "lng": 103.94439, "lat": 1.35267}, {"name": "Guardian Pharmacy (Tanglin Mall)", "lng": 103.82385, "lat": 1.30484}, {"name": "Guardian Pharmacy (Terminal 3 Transit Lounge North )", "lng": 103.98517, "lat": 1.35437}, {"name": "Guardian Pharmacy (The Centrepoint)", "lng": 103.83976, "lat": 1.30198}, {"name": "Guardian Pharmacy (The Woodleigh Mall)", "lng": 103.87167, "lat": 1.33873}, {"name": "Guardian Pharmacy (Thomson)", "lng": 103.83092, "lat": 1.35467}, {"name": "Guardian Pharmacy (Tiong Bahru Plaza)", "lng": 103.82694, "lat": 1.28646}, {"name": "Guardian Pharmacy (Toa Payoh Blk 190)", "lng": 103.84797, "lat": 1.33298}, {"name": "Guardian Pharmacy (United Square 2)", "lng": 103.84346, "lat": 1.31733}, {"name": "Guardian Pharmacy (Vivo)", "lng": 103.82159, "lat": 1.2639}, {"name": "Guardian Pharmacy (WRS)", "lng": 103.932, "lat": 1.3721}, {"name": "Guardian Pharmacy (West Mall)", "lng": 103.74902, "lat": 1.35019}, {"name": "Guardian Pharmacy (White Sands Mall)", "lng": 103.94972, "lat": 1.37245}, {"name": "Guardian Pharmacy (Yew Tee MRT)", "lng": 103.74733, "lat": 1.39713}, {"name": "Guardian Pharmacy (i12 Katong )", "lng": 103.90504, "lat": 1.30522}, {"name": "Haematology Pharmacy (Block 7)", "lng": 103.83072, "lat": 1.27994}, {"name": "Healing Hub @ Ang Mo Kio - Thye Hua Kwan Hospital", "lng": 103.84036, "lat": 1.38402}, {"name": "Jurong Community Hospital Pharmacy", "lng": 103.74387, "lat": 1.33553}, {"name": "Jurong Medical Centre Pharmacy", "lng": 103.70445, "lat": 1.34047}, {"name": "KK Emergency Pharmacy", "lng": 103.84665, "lat": 1.31045}, {"name": "KK Outpatient Pharmacy", "lng": 103.84665, "lat": 1.31045}, {"name": "Khoo Teck Puat Hospital Pharmacy", "lng": 103.83785, "lat": 1.42388}, {"name": "National University Health System Pharmacy (Bukit Batok)", "lng": 103.74782, "lat": 1.35202}, {"name": "National University Health System Pharmacy (Bukit Panjang)", "lng": 103.76017, "lat": 1.38271}, {"name": "National University Health System Pharmacy (Choa Chu Kang)", "lng": 103.75078, "lat": 1.38234}, {"name": "National University Health System Pharmacy (Clementi)", "lng": 103.76548, "lat": 1.31248}, {"name": "National University Health System Pharmacy (Jurong)", "lng": 103.73072, "lat": 1.34972}, {"name": "MANAPHARMA PHARMACY", "lng": 103.86226, "lat": 1.30235}, {"name": "MEDI-LINK PHARMACY", "lng": 103.86119, "lat": 1.30812}, {"name": "MOHAMED MUSTAFA & SAMSUDDIN CO PTE LTD (MUSTAFA CENTRE)", "lng": 103.855, "lat": 1.31053}, {"name": "MOUNT ELIZABETH NOVENA HOSPITAL PHARMACY", "lng": 103.84421, "lat": 1.32214}, {"name": "MT ALVERNIA HOSPITAL RETAIL PHARMACY", "lng": 103.83752, "lat": 1.34181}, {"name": "MUSTAFA PHARMACY", "lng": 103.85651, "lat": 1.30906}, {"name": "Mount Alvernia Hospital (Main Pharmacy)", "lng": 103.83752, "lat": 1.34181}, {"name": "Mount Alvernia Hospital, St Anne Mother & Child Centre Pharmacy", "lng": 103.83752, "lat": 1.34181}, {"name": "Mount Elizabeth Hospital", "lng": 103.83543, "lat": 1.30515}, {"name": "NATIONAL HEART CENTRE PHARMACY", "lng": 103.83595, "lat": 1.27863}, {"name": "NATIONAL UNIVERSITY HOSPITAL(S) PTE LTD (MEDICAL CENTRE PHARMACY)", "lng": 103.78408, "lat": 1.29277}, {"name": "National Addiction Management Services (NAMS) Clinic Pharmacy", "lng": 103.88335, "lat": 1.38159}, {"name": "National Cancer Center ATU Pharmacy", "lng": 103.8378, "lat": 1.28108}, {"name": "National Cancer Center Oncology Outpatient Pharmacy", "lng": 103.8378, "lat": 1.28108}, {"name": "National Centre for Infectious Disease (Outpatient Pharmacy)", "lng": 103.8478, "lat": 1.3214}, {"name": "National Healthcare Group Pharmacy (Ang Mo Kio)", "lng": 103.84561, "lat": 1.37431}, {"name": "National Healthcare Group Pharmacy (Geylang)", "lng": 103.88717, "lat": 1.31949}, {"name": "National Healthcare Group Pharmacy (Hougang)", "lng": 103.889, "lat": 1.37002}, {"name": "National Healthcare Group Pharmacy (Kallang)", "lng": 103.85869, "lat": 1.31669}, {"name": "National Healthcare Group Pharmacy (Khatib)", "lng": 103.83435, "lat": 1.41825}, {"name": "National Healthcare Group Pharmacy (Sembawang)", "lng": 103.82276, "lat": 1.44826}, {"name": "National Healthcare Group Pharmacy (Toa Payoh)", "lng": 103.85896, "lat": 1.33448}, {"name": "National Healthcare Group Pharmacy (Woodlands)", "lng": 103.77521, "lat": 1.43089}, {"name": "National Healthcare Group Pharmacy (Yishun)", "lng": 103.83919, "lat": 1.43036}, {"name": "National Skin Centre Pharmacy", "lng": 103.84894, "lat": 1.32016}, {"name": "National University Health System Pharmacy (Pioneer)", "lng": 103.69898, "lat": 1.33856}, {"name": "National University Health System Pharmacy (Queenstown)", "lng": 103.80096, "lat": 1.29848}, {"name": "National University Hospital (S) Pte Ltd (Main Building Pharmacy)", "lng": 103.78271, "lat": 1.29395}, {"name": "National University Hospital (s) Pte Ltd (Pharmacy @ NCIS)", "lng": 103.78408, "lat": 1.29277}, {"name": "Tan Tock Seng Hospital (Outpatient & Retail Pharmacy)", "lng": 103.84539, "lat": 1.32172}, {"name": "Tan Tock Seng Hospital (Pharmacy, Level 2)", "lng": 103.84539, "lat": 1.32172}, {"name": "The Japanese Association Clinic, Singapore", "lng": 103.81558, "lat": 1.33023}, {"name": "The Pharmacy Inc.", "lng": 103.85374, "lat": 1.31102}, {"name": "Thomson Medical Centre", "lng": 103.84145, "lat": 1.32536}, {"name": "Trident Pharm Pte Ltd", "lng": 103.83394, "lat": 1.30449}, {"name": "UNITY By FairPrice (BN(A))", "lng": 103.93164, "lat": 1.32594}, {"name": "UNITY By FairPrice (BTPZ)", "lng": 103.77856, "lat": 1.33866}, {"name": "UNITY By FairPrice (EPT)", "lng": 103.95302, "lat": 1.34271}, {"name": "UNITY By FairPrice (HGPT)", "lng": 103.8793, "lat": 1.37585}, {"name": "UNITY By FairPrice (HJPT )Hyper Jurong Point", "lng": 103.70535, "lat": 1.33932}, {"name": "UNITY By FairPrice (HNEX)", "lng": 103.8717, "lat": 1.35044}, {"name": "UNITY By FairPrice (KTIB)", "lng": 103.83522, "lat": 1.41698}, {"name": "UNITY By FairPrice (LOT1)", "lng": 103.74495, "lat": 1.38507}, {"name": "UNITY By FairPrice (MP)", "lng": 103.90711, "lat": 1.30142}, {"name": "UNITY By FairPrice (NPCT) North Point City", "lng": 103.83609, "lat": 1.42804}, {"name": "UNITY By FairPrice (RVAL)", "lng": 103.90156, "lat": 1.38493}, {"name": "UNITY By FairPrice (TGP)", "lng": 103.84239, "lat": 1.27515}, {"name": "UNITY By FairPrice (UARC)", "lng": 103.80113, "lat": 1.27368}, {"name": "UNITY By FairPrice (UBMC)", "lng": 103.81764, "lat": 1.28312}, {"name": "UNITY By FairPrice (UBPP)", "lng": 103.76396, "lat": 1.38052}, {"name": "UNITY By FairPrice (UHBF)", "lng": 103.81873, "lat": 1.26206}, {"name": "UNITY By FairPrice (UHLC)", "lng": 103.89366, "lat": 1.37231}, {"name": "UNITY By FairPrice (UHLM)", "lng": 103.76274, "lat": 1.37835}, {"name": "UNITY By FairPrice (UJX8)", "lng": 103.84843, "lat": 1.35017}, {"name": "UNITY By FairPrice (UPSG)", "lng": 103.84505, "lat": 1.30075}, {"name": "UNITY By FairPrice (USMA)", "lng": 103.87607, "lat": 1.39139}, {"name": "UNITY By FairPrice (UTP2)", "lng": 103.84713, "lat": 1.33289}, {"name": "UNITY By FairPrice (UWGA)", "lng": 103.74259, "lat": 1.33403}, {"name": "UNITY By FairPrice (UWSA)", "lng": 103.94972, "lat": 1.37245}, {"name": "UNITY By FairPrice (UWWP)", "lng": 103.90199, "lat": 1.40654}, {"name": "UNITY By Fairprice (CLML)", "lng": 103.76425, "lat": 1.31485}, {"name": "UNITY By Fairprice (YTP)", "lng": 103.74644, "lat": 1.39697}, {"name": "Unity By FairPrice (HSPH) Sports Hub", "lng": 103.87275, "lat": 1.30384}, {"name": "Unity By Fairprice (111S) Tripleone Somerset", "lng": 103.83729, "lat": 1.30021}, {"name": "Unity By Fairprice (HAMK) AMK HUB", "lng": 103.8484, "lat": 1.36925}, {"name": "Unity By Fairprice (HPWP) Hyper Parkway Parade", "lng": 103.90511, "lat": 1.30119}, {"name": "Unity By Fairprice (KADM) Kampung Admiralty", "lng": 103.80057, "lat": 1.43978}, {"name": "Unity By Fairprice (SINGPOST) SingPost Centre", "lng": 103.89407, "lat": 1.31886}, {"name": "Unity By Fairprice (TAML) Tampines Mall", "lng": 103.94439, "lat": 1.35267}, {"name": "Unity By Fairprice (TMJR) Taman Jurong Shopping Centre", "lng": 103.72027, "lat": 1.33504}, {"name": "Unity By Fairprice (UCSQ) City Square Mall", "lng": 103.85642, "lat": 1.31131}, {"name": "Unity By Fairprice (UCWP) Causeway Point", "lng": 103.78569, "lat": 1.43601}, {"name": "Unity By Fairprice (UIMM) IMM Mall (The International Merchandising Mart Mall)", "lng": 103.74673, "lat": 1.3349}, {"name": "Unity By Fairprice (UJPO) Jurong Point", "lng": 103.70646, "lat": 1.33983}, {"name": "Unity By Fairprice (UNVS) Novena Square", "lng": 103.84366, "lat": 1.32021}, {"name": "Unity By Fairprice (UPRM ) Pasir Ris Mall", "lng": 103.9486, "lat": 1.37396}, {"name": "Unity By Fairprice (UT2S) Changi Airport T2 South", "lng": 103.98875, "lat": 1.35519}, {"name": "Unity By Fairprice (UTLM) Tanglin Mall", "lng": 103.82385, "lat": 1.30484}, {"name": "Unity By Fairprice (UTPN) Tampines One", "lng": 103.94502, "lat": 1.35432}, {"name": "Unity By Fairprice (UVVO) Vivo City", "lng": 103.82159, "lat": 1.2639}, {"name": "Unity by Fairprice (UWLM) Woodleigh Mall", "lng": 103.87167, "lat": 1.33873}, {"name": "Unity by Fairprice Thomson Plaza (UTSZ)", "lng": 103.83092, "lat": 1.35467}, {"name": "Vivahealth Pharmacy Pte Ltd", "lng": 103.84514, "lat": 1.28422}, {"name": "WATSON'S PERSONAL CARE STORES PTE LTD (WATERWAY POINT)", "lng": 103.90199, "lat": 1.40654}, {"name": "WATSONS PERSONAL CARE STORES (TIONG BAHRU PLAZA)", "lng": 103.82694, "lat": 1.28646}, {"name": "Watson's Personal Care Stores Pte Ltd (Ang Mo Kio Hub 2)", "lng": 103.8484, "lat": 1.36925}, {"name": "Watson's Personal Care Stores Pte Ltd (Bedok Mall)", "lng": 103.92918, "lat": 1.32479}]