[{"name":"Sephora Takashimaya","lng":103.83518,"lat":1.30224},{"name":"Sephora Marina Bay Sands","lng":103.85841,"lat":1.2824},{"name":"Sephora Raffles City","lng":103.85312,"lat":1.29389},{"name":"Sephora Bugis+","lng":103.85352,"lat":1.29966},{"name":"Sephora ION Orchard","lng":103.83203,"lat":1.30398},{"name":"Sephora Causeway Point","lng":103.78598,"lat":1.43607},{"name":"Sephora NEX","lng":103.87186,"lat":1.35068},{"name":"Sephora Plaza Singapura","lng":103.84557,"lat":1.29989},{"name":"Sephora Westgate","lng":103.74259,"lat":1.33403},{"name":"Sephora Tampines Mall","lng":103.94468,"lat":1.3525},{"name":"Sephora VivoCity","lng":103.82207,"lat":1.26431}]