[{"name": "Admiralty Primary School", "lng": 103.80004, "lat": 1.44263, "kind": "Primary", "poly": [[[103.80073, 1.44384], [103.8012, 1.44279], [103.79987, 1.4422], [103.7997, 1.44246], [103.79946, 1.44258], [103.79956, 1.44279], [103.79956, 1.44309], [103.79949, 1.44334], [103.80073, 1.44384]]]}, {"name": "Admiralty Secondary School", "lng": 103.8024, "lat": 1.44589, "kind": "Secondary", "poly": [[[103.80267, 1.4449], [103.80233, 1.44562], [103.8022, 1.44576], [103.8018, 1.446], [103.80157, 1.4463], [103.80162, 1.44642], [103.80248, 1.44681], [103.80262, 1.44683], [103.80289, 1.44676], [103.80388, 1.44597], [103.80339, 1.44494], [103.80283, 1.44519], [103.80267, 1.4449]]]}, {"name": "Ahmad Ibrahim Primary School", "lng": 103.83294, "lat": 1.43315, "kind": "Primary", "poly": [[[103.83238, 1.43453], [103.83284, 1.43423], [103.83329, 1.4342], [103.83329, 1.43297], [103.83261, 1.43297], [103.8326, 1.43349], [103.83214, 1.4335], [103.83211, 1.43421], [103.83218, 1.43436], [103.83238, 1.43453]]]}, {"name": "Ahmad Ibrahim Secondary School", "lng": 103.82972, "lat": 1.43606, "kind": "Secondary", "poly": [[[103.8289, 1.43642], [103.82926, 1.43657], [103.82928, 1.43652], [103.82944, 1.4366], [103.82943, 1.43664], [103.83035, 1.43703], [103.83134, 1.43551], [103.83072, 1.4352], [103.83037, 1.43579], [103.82963, 1.43532], [103.8289, 1.43642]]]}, {"name": "Ai Tong School", "lng": 103.83302, "lat": 1.36058, "kind": "Primary", "poly": [[[103.83342, 1.361], [103.83384, 1.36083], [103.83342, 1.35986], [103.83224, 1.36037], [103.83222, 1.36139], [103.83338, 1.36091], [103.83342, 1.361]]]}, {"name": "Alexandra Primary School", "lng": 103.82442, "lat": 1.29133, "kind": "Primary", "poly": [[[103.82332, 1.29175], [103.82335, 1.29104], [103.8234, 1.29098], [103.82393, 1.29096], [103.82394, 1.29104], [103.824, 1.29103], [103.824, 1.29095], [103.8248, 1.29086], [103.82485, 1.29146], [103.82499, 1.29152], [103.82521, 1.29151], [103.82499, 1.29157], [103.82459, 1.29181], [103.82424, 1.2917], [103.82332, 1.29175]]]}, {"name": "Anchor Green Primary School", "lng": 103.88717, "lat": 1.39037, "kind": "Primary", "poly": [[[103.88658, 1.39139], [103.88668, 1.39145], [103.8868, 1.39145], [103.88807, 1.39082], [103.88758, 1.38997], [103.88621, 1.39079], [103.88658, 1.39139]]]}, {"name": "Anderson Primary School", "lng": 103.84141, "lat": 1.3842, "kind": "Primary", "poly": [[[103.8422, 1.38399], [103.84153, 1.38535], [103.84063, 1.38489], [103.84115, 1.38383], [103.8422, 1.38399]]]}, {"name": "Anderson Secondary School", "lng": 103.85155, "lat": 1.37434, "kind": "Secondary", "poly": [[[103.85101, 1.37606], [103.85251, 1.37588], [103.85242, 1.37491], [103.8519, 1.37495], [103.85183, 1.37395], [103.85091, 1.374], [103.85101, 1.37606]]]}, {"name": "Anderson Serangoon Junior College", "lng": 103.88704, "lat": 1.36504, "kind": "Junior College"}, {"name": "Ang Mo Kio Primary School", "lng": 103.83963, "lat": 1.36932, "kind": "Primary", "poly": [[[103.84004, 1.36957], [103.83882, 1.36969], [103.83826, 1.36963], [103.83893, 1.3687], [103.83953, 1.36864], [103.83951, 1.36848], [103.83994, 1.36845], [103.84004, 1.36957]]]}, {"name": "Ang Mo Kio Secondary School", "lng": 103.84215, "lat": 1.36734, "kind": "Secondary", "poly": [[[103.84171, 1.36855], [103.8416, 1.36782], [103.84181, 1.36776], [103.84182, 1.36758], [103.84164, 1.36706], [103.84207, 1.36694], [103.84253, 1.36698], [103.8427, 1.36707], [103.84356, 1.36797], [103.84375, 1.36832], [103.84171, 1.36855]]]}, {"name": "Anglican High School", "lng": 103.94185, "lat": 1.33118, "kind": "Secondary", "poly": [[[103.94172, 1.33145], [103.94177, 1.33174], [103.94245, 1.33163], [103.94236, 1.33062], [103.94282, 1.32898], [103.94132, 1.32873], [103.94091, 1.3309], [103.94102, 1.33126], [103.94172, 1.33145]]]}, {"name": "Anglo-chinese Junior College", "lng": 103.78536, "lat": 1.30304, "kind": "Junior College", "poly": [[[103.78411, 1.30274], [103.7847, 1.30248], [103.7849, 1.3023], [103.78489, 1.30187], [103.78536, 1.30169], [103.78517, 1.30122], [103.78536, 1.30115], [103.78515, 1.30061], [103.78408, 1.30103], [103.78343, 1.30181], [103.78387, 1.30217], [103.78411, 1.30274]]]}, {"name": "Anglo-chinese School (barker Road)", "lng": 103.83577, "lat": 1.31962, "kind": "Secondary", "poly": [[[103.83607, 1.31923], [103.83621, 1.32006], [103.83614, 1.32034], [103.83566, 1.32032], [103.83525, 1.32017], [103.83541, 1.3198], [103.83493, 1.31961], [103.83512, 1.31908], [103.83607, 1.31923]]]}, {"name": "Anglo-chinese School (independent)", "lng": 103.78036, "lat": 1.3037, "kind": "Secondary & JC"}, {"name": "Anglo-chinese School (junior)", "lng": 103.84095, "lat": 1.30935, "kind": "Primary", "poly": [[[103.8404, 1.30958], [103.84082, 1.30832], [103.84121, 1.3081], [103.8418, 1.30873], [103.84198, 1.30858], [103.84236, 1.30899], [103.84165, 1.3098], [103.84127, 1.30982], [103.84112, 1.30996], [103.84071, 1.30966], [103.8404, 1.30958]]]}, {"name": "Anglo-chinese School (primary)", "lng": 103.83535, "lat": 1.31872, "kind": "Primary", "poly": [[[103.83512, 1.31908], [103.83495, 1.31884], [103.83399, 1.31911], [103.83379, 1.31848], [103.83528, 1.31811], [103.8362, 1.31828], [103.83631, 1.31867], [103.83607, 1.31923], [103.83512, 1.31908]]]}, {"name": "Angsana Primary School", "lng": 103.93894, "lat": 1.36361, "kind": "Primary", "poly": [[[103.93817, 1.36418], [103.93824, 1.36393], [103.93826, 1.36314], [103.93832, 1.36302], [103.93846, 1.36294], [103.93958, 1.36292], [103.93958, 1.36429], [103.93939, 1.36418], [103.93817, 1.36418]]]}, {"name": "Assumption English School", "lng": 103.76669, "lat": 1.36838, "kind": "Secondary", "poly": [[[103.76558, 1.36927], [103.76584, 1.3688], [103.76559, 1.36844], [103.76593, 1.36787], [103.76754, 1.36878], [103.76675, 1.37], [103.76558, 1.36927]]]}, {"name": "Assumption Pathway School", "lng": 103.76596, "lat": 1.36967, "kind": "Secondary", "poly": [[[103.76735, 1.37037], [103.76689, 1.37103], [103.76522, 1.36985], [103.76558, 1.36927], [103.76735, 1.37037]]]}, {"name": "Bartley Secondary School", "lng": 103.88281, "lat": 1.33995, "kind": "Secondary", "poly": [[[103.88173, 1.34156], [103.88243, 1.34124], [103.88259, 1.34112], [103.88376, 1.33997], [103.88283, 1.3394], [103.88271, 1.33928], [103.88209, 1.34], [103.8817, 1.34003], [103.88163, 1.33997], [103.8815, 1.34012], [103.88173, 1.34156]]]}, {"name": "Beacon Primary School", "lng": 103.77363, "lat": 1.38395, "kind": "Primary", "poly": [[[103.77437, 1.38454], [103.77311, 1.38455], [103.77324, 1.38358], [103.77319, 1.38306], [103.77377, 1.38306], [103.77377, 1.38358], [103.77448, 1.38358], [103.77437, 1.38454]]]}, {"name": "Beatty Secondary School", "lng": 103.85228, "lat": 1.34179, "kind": "Secondary", "poly": [[[103.85125, 1.34229], [103.85333, 1.34214], [103.85329, 1.34143], [103.85319, 1.34099], [103.85274, 1.34074], [103.85122, 1.34086], [103.85125, 1.34229]]]}, {"name": "Bedok Green Primary School", "lng": 103.93775, "lat": 1.324, "kind": "Primary", "poly": [[[103.9384, 1.3234], [103.93832, 1.32402], [103.93839, 1.32403], [103.9383, 1.32475], [103.93732, 1.32466], [103.93724, 1.32457], [103.93742, 1.3232], [103.9384, 1.3234]]]}, {"name": "Bedok Green Secondary School", "lng": 103.93503, "lat": 1.33452, "kind": "Secondary", "poly": [[[103.93388, 1.33453], [103.93387, 1.33464], [103.93392, 1.33473], [103.93416, 1.33484], [103.93658, 1.33486], [103.93661, 1.33396], [103.93598, 1.33386], [103.93608, 1.33327], [103.93531, 1.33312], [103.93505, 1.33437], [103.93424, 1.33429], [103.93417, 1.33419], [103.93395, 1.33416], [103.93388, 1.33453]]]}, {"name": "Bedok South Secondary School", "lng": 103.95099, "lat": 1.32514, "kind": "Secondary", "poly": [[[103.95126, 1.32423], [103.95133, 1.32414], [103.95186, 1.32468], [103.95169, 1.32492], [103.95179, 1.32506], [103.95174, 1.32516], [103.95195, 1.32537], [103.95101, 1.32662], [103.95011, 1.32575], [103.95126, 1.32423]]]}, {"name": "Bedok View Secondary School", "lng": 103.94378, "lat": 1.32416, "kind": "Secondary", "poly": [[[103.94262, 1.32566], [103.94298, 1.3238], [103.94415, 1.32402], [103.94432, 1.32496], [103.94432, 1.32527], [103.94408, 1.32601], [103.94396, 1.32608], [103.94262, 1.32566]]]}, {"name": "Bendemeer Primary School", "lng": 103.8654, "lat": 1.32181, "kind": "Primary", "poly": [[[103.86457, 1.32319], [103.8655, 1.32245], [103.86605, 1.3221], [103.86559, 1.32139], [103.8641, 1.32258], [103.86457, 1.32319]]]}, {"name": "Bendemeer Secondary School", "lng": 103.86097, "lat": 1.32461, "kind": "Secondary", "poly": [[[103.86161, 1.32464], [103.86044, 1.32337], [103.85936, 1.32433], [103.86058, 1.32563], [103.86161, 1.32464]]]}, {"name": "Blangah Rise Primary School", "lng": 103.80863, "lat": 1.27612, "kind": "Primary", "poly": [[[103.80928, 1.27746], [103.80885, 1.27648], [103.80834, 1.27666], [103.80783, 1.27582], [103.80859, 1.27541], [103.80885, 1.27587], [103.8094, 1.27633], [103.80981, 1.27725], [103.80928, 1.27746]]]}, {"name": "Boon Lay Garden Primary School", "lng": 103.71286, "lat": 1.34284, "kind": "Primary", "poly": [[[103.7123, 1.34323], [103.71273, 1.34188], [103.7135, 1.34218], [103.71327, 1.34282], [103.71364, 1.34296], [103.71322, 1.34401], [103.71267, 1.34345], [103.7123, 1.34323]]]}, {"name": "Boon Lay Secondary School", "lng": 103.70189, "lat": 1.34272, "kind": "Secondary", "poly": [[[103.70263, 1.34217], [103.70237, 1.34365], [103.70103, 1.34339], [103.7009, 1.34335], [103.70075, 1.3432], [103.70096, 1.34185], [103.70263, 1.34217]]]}, {"name": "Bowen Secondary School", "lng": 103.87766, "lat": 1.37036, "kind": "Secondary", "poly": [[[103.87682, 1.37151], [103.87668, 1.3705], [103.87676, 1.37018], [103.87694, 1.37008], [103.87679, 1.37008], [103.87824, 1.36989], [103.87856, 1.37127], [103.87682, 1.37151]]]}, {"name": "Broadrick Secondary School", "lng": 103.88692, "lat": 1.30705, "kind": "Secondary", "poly": [[[103.88775, 1.3079], [103.88791, 1.30793], [103.88809, 1.30705], [103.88806, 1.30702], [103.88609, 1.30662], [103.886, 1.30665], [103.88561, 1.30748], [103.88564, 1.30755], [103.88587, 1.30766], [103.88773, 1.30804], [103.88775, 1.3079]]]}, {"name": "Bukit Batok Secondary School", "lng": 103.74087, "lat": 1.34849, "kind": "Secondary", "poly": [[[103.73977, 1.34966], [103.73975, 1.34882], [103.7399, 1.34826], [103.74008, 1.34793], [103.74033, 1.34765], [103.74073, 1.34735], [103.74159, 1.34829], [103.74158, 1.34865], [103.74114, 1.34866], [103.74096, 1.34874], [103.74034, 1.34874], [103.74033, 1.34967], [103.73977, 1.34966]]]}, {"name": "Bukit Merah Secondary School", "lng": 103.81344, "lat": 1.28569, "kind": "Secondary", "poly": [[[103.81183, 1.28655], [103.81268, 1.28639], [103.81296, 1.28638], [103.81325, 1.28645], [103.8136, 1.28669], [103.8139, 1.28628], [103.81392, 1.28598], [103.81425, 1.28598], [103.81425, 1.28551], [103.81417, 1.28518], [103.81341, 1.28545], [103.81167, 1.28585], [103.81183, 1.28655]]]}, {"name": "Bukit Panjang Govt. High School", "lng": 103.73836, "lat": 1.38224, "kind": "Secondary", "poly": [[[103.73817, 1.38332], [103.73943, 1.38181], [103.73846, 1.38087], [103.73714, 1.38244], [103.73817, 1.38332]]]}, {"name": "Bukit Panjang Primary School", "lng": 103.76937, "lat": 1.37362, "kind": "Primary", "poly": [[[103.76888, 1.3729], [103.76845, 1.37366], [103.77028, 1.37409], [103.77047, 1.37409], [103.77111, 1.3737], [103.76888, 1.3729]]]}, {"name": "Bukit Timah Primary School", "lng": 103.76686, "lat": 1.33775, "kind": "Primary", "poly": [[[103.76758, 1.33724], [103.76745, 1.33789], [103.76735, 1.33787], [103.76719, 1.33861], [103.76614, 1.3378], [103.76625, 1.33693], [103.76758, 1.33724]]]}, {"name": "Bukit View Primary School", "lng": 103.75367, "lat": 1.34586, "kind": "Primary", "poly": [[[103.75293, 1.34647], [103.75293, 1.34615], [103.753, 1.34608], [103.75299, 1.34483], [103.75337, 1.34467], [103.7534, 1.34532], [103.75403, 1.34532], [103.75404, 1.34632], [103.75323, 1.34646], [103.75293, 1.34647]]]}, {"name": "Bukit View Secondary School", "lng": 103.75223, "lat": 1.34573, "kind": "Secondary", "poly": [[[103.75138, 1.34639], [103.75138, 1.34528], [103.75299, 1.34483], [103.753, 1.34608], [103.75293, 1.34615], [103.75293, 1.34647], [103.75144, 1.34644], [103.75138, 1.34639]]]}, {"name": "Canberra Primary School", "lng": 103.81586, "lat": 1.45125, "kind": "Primary", "poly": [[[103.81483, 1.45129], [103.81524, 1.45008], [103.81633, 1.45043], [103.81592, 1.45164], [103.81483, 1.45129]]]}, {"name": "Canberra Secondary School", "lng": 103.8142, "lat": 1.45319, "kind": "Secondary", "poly": [[[103.81321, 1.45425], [103.81491, 1.45443], [103.81497, 1.45439], [103.81513, 1.45365], [103.81529, 1.45338], [103.81461, 1.453], [103.81339, 1.45299], [103.81328, 1.45304], [103.81321, 1.45425]]]}, {"name": "Canossa Catholic Primary School", "lng": 103.88223, "lat": 1.32664, "kind": "Primary", "poly": [[[103.88072, 1.32626], [103.88066, 1.32631], [103.88046, 1.32696], [103.88072, 1.32704], [103.88257, 1.32678], [103.88343, 1.32603], [103.88291, 1.32608], [103.88276, 1.32617], [103.8827, 1.32611], [103.88096, 1.32633], [103.88072, 1.32626]]]}, {"name": "Cantonment Primary School", "lng": 103.83996, "lat": 1.27547, "kind": "Primary", "poly": [[[103.83932, 1.27647], [103.83959, 1.27502], [103.84044, 1.27516], [103.84027, 1.27623], [103.84021, 1.27622], [103.84015, 1.27662], [103.83932, 1.27647]]]}, {"name": "Casuarina Primary School", "lng": 103.95702, "lat": 1.37246, "kind": "Primary", "poly": [[[103.95638, 1.37333], [103.9565, 1.37285], [103.95681, 1.37212], [103.95687, 1.37208], [103.95787, 1.37229], [103.95787, 1.37333], [103.95638, 1.37333]]]}, {"name": "Catholic High School", "lng": 103.8449, "lat": 1.35453, "kind": "Primary & Secondary", "poly": [[[103.84386, 1.3555], [103.84419, 1.35521], [103.84512, 1.35527], [103.84566, 1.35569], [103.84631, 1.35574], [103.84642, 1.35521], [103.84672, 1.3547], [103.84557, 1.35379], [103.84465, 1.35393], [103.84325, 1.35454], [103.84345, 1.35503], [103.84386, 1.3555]]]}, {"name": "Catholic Junior College", "lng": 103.83503, "lat": 1.32456, "kind": "Junior College"}, {"name": "Cedar Girls' Secondary School", "lng": 103.87393, "lat": 1.33376, "kind": "Secondary", "poly": [[[103.87385, 1.33598], [103.87344, 1.33367], [103.8748, 1.33341], [103.87501, 1.33477], [103.87487, 1.33486], [103.8747, 1.33581], [103.87385, 1.33598]]]}, {"name": "Cedar Primary School", "lng": 103.87562, "lat": 1.33566, "kind": "Primary", "poly": [[[103.8747, 1.33581], [103.87487, 1.33486], [103.87501, 1.33477], [103.8763, 1.33525], [103.87602, 1.33622], [103.87478, 1.33584], [103.87477, 1.33589], [103.87435, 1.33588], [103.8747, 1.33581]]]}, {"name": "Changkat Changi Secondary School", "lng": 103.95325, "lat": 1.33951, "kind": "Secondary", "poly": [[[103.95226, 1.34098], [103.95301, 1.34162], [103.95386, 1.33965], [103.95336, 1.33942], [103.9529, 1.33949], [103.95297, 1.34016], [103.95244, 1.34021], [103.95245, 1.34078], [103.95226, 1.34098]]]}, {"name": "Changkat Primary School", "lng": 103.95208, "lat": 1.34023, "kind": "Primary", "poly": [[[103.95226, 1.34098], [103.95245, 1.34078], [103.95244, 1.34021], [103.95297, 1.34016], [103.9529, 1.33949], [103.95336, 1.33942], [103.95238, 1.33896], [103.9513, 1.34018], [103.95226, 1.34098]]]}, {"name": "Chij (katong) Primary", "lng": 103.91111, "lat": 1.30649, "kind": "Primary", "poly": [[[103.91049, 1.30596], [103.91014, 1.30676], [103.91118, 1.30697], [103.91152, 1.30612], [103.91049, 1.30596]]]}, {"name": "Chij (kellock)", "lng": 103.82816, "lat": 1.27502, "kind": "Primary", "poly": [[[103.82746, 1.2757], [103.82748, 1.27478], [103.82786, 1.27455], [103.82814, 1.27383], [103.82845, 1.27417], [103.82842, 1.27448], [103.82846, 1.27489], [103.82835, 1.27523], [103.82809, 1.27544], [103.82746, 1.2757]]]}, {"name": "Chij Katong Convent", "lng": 103.91714, "lat": 1.30644, "kind": "Secondary", "poly": [[[103.91689, 1.30699], [103.91698, 1.30701], [103.91696, 1.30708], [103.91806, 1.30728], [103.91808, 1.30676], [103.91828, 1.30677], [103.91829, 1.30644], [103.91849, 1.30644], [103.9186, 1.30609], [103.91816, 1.30598], [103.91802, 1.30601], [103.91705, 1.30576], [103.9168, 1.30678], [103.91694, 1.30681], [103.91689, 1.30699]]]}, {"name": "Chij Our Lady Of Good Counsel", "lng": 103.86401, "lat": 1.35743, "kind": "Primary", "poly": [[[103.86336, 1.35802], [103.86343, 1.35749], [103.864, 1.35704], [103.86462, 1.35819], [103.86414, 1.35851], [103.86387, 1.35809], [103.86336, 1.35802]]]}, {"name": "Chij Our Lady Of The Nativity", "lng": 103.89758, "lat": 1.3733, "kind": "Primary", "poly": [[[103.89786, 1.37246], [103.89833, 1.3729], [103.89787, 1.3734], [103.89798, 1.3735], [103.89763, 1.37387], [103.89704, 1.37332], [103.89786, 1.37246]]]}, {"name": "Chij Our Lady Queen Of Peace", "lng": 103.76746, "lat": 1.3665, "kind": "Primary", "poly": [[[103.76698, 1.36684], [103.7672, 1.36648], [103.76785, 1.36574], [103.76828, 1.36571], [103.76863, 1.36584], [103.76887, 1.36601], [103.76909, 1.36654], [103.76917, 1.36663], [103.76903, 1.36679], [103.76881, 1.36673], [103.76873, 1.36664], [103.76847, 1.36653], [103.76832, 1.36651], [103.76791, 1.36712], [103.7678, 1.36705], [103.76698, 1.36684]]]}, {"name": "Chij Primary (toa Payoh)", "lng": 103.84185, "lat": 1.33275, "kind": "Primary", "poly": [[[103.84168, 1.3325], [103.84146, 1.33308], [103.84232, 1.33376], [103.84316, 1.33379], [103.84338, 1.33318], [103.84268, 1.3328], [103.84257, 1.33299], [103.84168, 1.3325]]]}, {"name": "Chij Secondary (toa Payoh)", "lng": 103.84327, "lat": 1.33246, "kind": "Secondary", "poly": [[[103.84168, 1.3325], [103.84257, 1.33299], [103.84268, 1.3328], [103.84338, 1.33318], [103.84377, 1.33254], [103.84329, 1.33191], [103.84212, 1.33192], [103.84168, 1.3325]]]}, {"name": "Chij St. Joseph's Convent", "lng": 103.90246, "lat": 1.39175, "kind": "Secondary", "poly": [[[103.90211, 1.39117], [103.90208, 1.39254], [103.90292, 1.39273], [103.90283, 1.39099], [103.90211, 1.39117]]]}, {"name": "Chij St. Nicholas Girls' School", "lng": 103.83425, "lat": 1.37348, "kind": "Primary & Secondary", "poly": [[[103.83413, 1.37511], [103.83407, 1.3745], [103.83323, 1.37458], [103.83317, 1.37416], [103.83317, 1.37368], [103.83327, 1.37223], [103.83318, 1.37167], [103.83324, 1.37161], [103.83442, 1.37321], [103.83481, 1.37296], [103.83532, 1.37456], [103.83512, 1.37484], [103.83481, 1.37504], [103.83456, 1.37511], [103.83413, 1.37511]]]}, {"name": "Chij St. Theresa's Convent", "lng": 103.82244, "lat": 1.27535, "kind": "Secondary", "poly": [[[103.8211, 1.27505], [103.82107, 1.27508], [103.82132, 1.27582], [103.82167, 1.27648], [103.82227, 1.27667], [103.82252, 1.27711], [103.82316, 1.27677], [103.82274, 1.27514], [103.82225, 1.27486], [103.8211, 1.27505]]]}, {"name": "Chongfu School", "lng": 103.83931, "lat": 1.4384, "kind": "Primary", "poly": [[[103.83979, 1.43953], [103.83837, 1.4389], [103.83877, 1.43806], [103.8402, 1.43855], [103.83979, 1.43953]]]}, {"name": "Chongzheng Primary School", "lng": 103.95132, "lat": 1.35061, "kind": "Primary", "poly": [[[103.95166, 1.35112], [103.95187, 1.35057], [103.95182, 1.35047], [103.95019, 1.34994], [103.94998, 1.3505], [103.94998, 1.35085], [103.95054, 1.35105], [103.95062, 1.35084], [103.95135, 1.35109], [103.95137, 1.35103], [103.95166, 1.35112]]]}, {"name": "Christ Church Secondary School", "lng": 103.79345, "lat": 1.42657, "kind": "Secondary", "poly": [[[103.79265, 1.42752], [103.79324, 1.42724], [103.79414, 1.42707], [103.79419, 1.42699], [103.79423, 1.42624], [103.7942, 1.42615], [103.79408, 1.42609], [103.79265, 1.42603], [103.79231, 1.4261], [103.79188, 1.42633], [103.79265, 1.42752]]]}, {"name": "Chua Chu Kang Primary School", "lng": 103.74183, "lat": 1.37776, "kind": "Primary", "poly": [[[103.74099, 1.37778], [103.74129, 1.37725], [103.74278, 1.37735], [103.74273, 1.37834], [103.74174, 1.37824], [103.74144, 1.3781], [103.74099, 1.37778]]]}, {"name": "Chua Chu Kang Secondary School", "lng": 103.7551, "lat": 1.38333, "kind": "Secondary", "poly": [[[103.75544, 1.38435], [103.75483, 1.3835], [103.75422, 1.38231], [103.75485, 1.38209], [103.75518, 1.38269], [103.75558, 1.38263], [103.75609, 1.38351], [103.75544, 1.38435]]]}, {"name": "Chung Cheng High School (main)", "lng": 103.89165, "lat": 1.30509, "kind": "Secondary", "poly": [[[103.89077, 1.30632], [103.8929, 1.30649], [103.89303, 1.30469], [103.89032, 1.3045], [103.89025, 1.30511], [103.89058, 1.30514], [103.89054, 1.30557], [103.89084, 1.30559], [103.89077, 1.30632]]]}, {"name": "Chung Cheng High School (yishun)", "lng": 103.83739, "lat": 1.41923, "kind": "Secondary", "poly": [[[103.83661, 1.41985], [103.8373, 1.41967], [103.83791, 1.41992], [103.83832, 1.41884], [103.83667, 1.41817], [103.83605, 1.41846], [103.83644, 1.41932], [103.83661, 1.41985]]]}, {"name": "Clementi Primary School", "lng": 103.76314, "lat": 1.31506, "kind": "Primary", "poly": [[[103.7639, 1.31556], [103.76304, 1.31624], [103.76256, 1.31561], [103.76279, 1.31544], [103.76279, 1.31498], [103.76343, 1.31496], [103.76361, 1.31529], [103.7639, 1.31556]]]}, {"name": "Clementi Town Secondary School", "lng": 103.76202, "lat": 1.31554, "kind": "Secondary", "poly": [[[103.76256, 1.31561], [103.7628, 1.31593], [103.7619, 1.31664], [103.76151, 1.31618], [103.76122, 1.31571], [103.76114, 1.31544], [103.76108, 1.31541], [103.76105, 1.31475], [103.76336, 1.31475], [103.76343, 1.31496], [103.76279, 1.31498], [103.76279, 1.31544], [103.76256, 1.31561]]]}, {"name": "Commonwealth Secondary School", "lng": 103.74564, "lat": 1.3192, "kind": "Secondary", "poly": [[[103.7447, 1.31934], [103.74475, 1.31905], [103.74495, 1.31883], [103.74625, 1.31858], [103.74666, 1.32045], [103.74611, 1.32058], [103.74557, 1.32085], [103.7447, 1.31934]]]}, {"name": "Compassvale Primary School", "lng": 103.8979, "lat": 1.39443, "kind": "Primary", "poly": [[[103.89846, 1.39377], [103.89862, 1.39407], [103.89883, 1.39467], [103.89878, 1.39481], [103.89866, 1.3949], [103.89753, 1.39516], [103.89719, 1.39424], [103.89846, 1.39377]]]}, {"name": "Compassvale Secondary School", "lng": 103.89985, "lat": 1.39614, "kind": "Secondary", "poly": [[[103.90042, 1.39538], [103.89944, 1.39571], [103.89953, 1.39614], [103.89942, 1.3966], [103.89962, 1.39715], [103.90025, 1.39691], [103.90063, 1.39796], [103.90123, 1.39763], [103.90042, 1.39538]]]}, {"name": "Concord Primary School", "lng": 103.73655, "lat": 1.38027, "kind": "Primary", "poly": [[[103.73588, 1.38141], [103.73728, 1.37972], [103.73669, 1.37915], [103.73531, 1.38082], [103.73588, 1.38141]]]}, {"name": "Corporation Primary School", "lng": 103.70759, "lat": 1.351, "kind": "Primary", "poly": [[[103.70758, 1.35247], [103.70726, 1.35198], [103.70711, 1.35149], [103.70709, 1.35109], [103.70723, 1.35048], [103.70834, 1.35116], [103.70839, 1.35124], [103.70758, 1.35247]]]}, {"name": "Crescent Girls' School", "lng": 103.81754, "lat": 1.29332, "kind": "Secondary", "poly": [[[103.81758, 1.29267], [103.81875, 1.29257], [103.81887, 1.29394], [103.81786, 1.29394], [103.81738, 1.29435], [103.81705, 1.29437], [103.81682, 1.29424], [103.81684, 1.29409], [103.81658, 1.29402], [103.81663, 1.2939], [103.81658, 1.29347], [103.81665, 1.29339], [103.81762, 1.29308], [103.81758, 1.29267]]]}, {"name": "Crest Secondary School", "lng": 103.74263, "lat": 1.34312, "kind": "Secondary", "poly": [[[103.7427, 1.34454], [103.74166, 1.34331], [103.74178, 1.34294], [103.74232, 1.34291], [103.7429, 1.3425], [103.74301, 1.34247], [103.74352, 1.3431], [103.74356, 1.34426], [103.7427, 1.34454]]]}, {"name": "Damai Primary School", "lng": 103.92127, "lat": 1.33546, "kind": "Primary", "poly": [[[103.92045, 1.33616], [103.92062, 1.33639], [103.92192, 1.33574], [103.92212, 1.33489], [103.92082, 1.3348], [103.92077, 1.33592], [103.92045, 1.33616]]]}, {"name": "Damai Secondary School", "lng": 103.92709, "lat": 1.33693, "kind": "Secondary", "poly": [[[103.92606, 1.33837], [103.92696, 1.33877], [103.92775, 1.33635], [103.92673, 1.33615], [103.92606, 1.33837]]]}, {"name": "Dazhong Primary School", "lng": 103.74847, "lat": 1.35918, "kind": "Primary", "poly": [[[103.74691, 1.35952], [103.74719, 1.35913], [103.74732, 1.35876], [103.74884, 1.35878], [103.74876, 1.35923], [103.74865, 1.35939], [103.74834, 1.35962], [103.74747, 1.35963], [103.74727, 1.35956], [103.74691, 1.35952]]]}, {"name": "De La Salle School", "lng": 103.7432, "lat": 1.39471, "kind": "Primary", "poly": [[[103.74351, 1.39429], [103.74242, 1.39498], [103.74275, 1.39581], [103.74393, 1.39548], [103.74411, 1.39506], [103.74391, 1.3949], [103.74351, 1.39429]]]}, {"name": "Deyi Secondary School", "lng": 103.85255, "lat": 1.366, "kind": "Secondary", "poly": [[[103.8521, 1.3655], [103.85299, 1.36588], [103.85303, 1.36594], [103.85256, 1.36772], [103.85109, 1.36733], [103.8521, 1.3655]]]}, {"name": "Dunearn Secondary School", "lng": 103.74472, "lat": 1.36358, "kind": "Secondary", "poly": [[[103.74396, 1.36468], [103.74443, 1.36425], [103.74539, 1.36428], [103.74544, 1.36278], [103.74423, 1.36273], [103.74422, 1.36336], [103.74392, 1.36334], [103.74329, 1.36385], [103.74396, 1.36468]]]}, {"name": "Dunman High School", "lng": 103.88294, "lat": 1.29996, "kind": "Secondary & JC", "poly": [[[103.88226, 1.30005], [103.88303, 1.30094], [103.88318, 1.30064], [103.88354, 1.3002], [103.88363, 1.29957], [103.88363, 1.29821], [103.88234, 1.29817], [103.88167, 1.29798], [103.88085, 1.2979], [103.88079, 1.29795], [103.88072, 1.29911], [103.88082, 1.29944], [103.88109, 1.29963], [103.88193, 1.29977], [103.88213, 1.2999], [103.88226, 1.30005]]]}, {"name": "Dunman Secondary School", "lng": 103.95621, "lat": 1.36065, "kind": "Secondary", "poly": [[[103.95488, 1.36144], [103.95575, 1.3623], [103.95722, 1.36083], [103.95675, 1.36039], [103.95564, 1.36039], [103.95563, 1.36053], [103.95542, 1.3609], [103.95488, 1.36144]]]}, {"name": "East Spring Primary School", "lng": 103.96168, "lat": 1.35268, "kind": "Primary", "poly": [[[103.96136, 1.35365], [103.96136, 1.35222], [103.96201, 1.35221], [103.96228, 1.35227], [103.96245, 1.35246], [103.9625, 1.3533], [103.96244, 1.35348], [103.96232, 1.35363], [103.96136, 1.35365]]]}, {"name": "East Spring Secondary School", "lng": 103.96064, "lat": 1.35623, "kind": "Secondary", "poly": [[[103.95965, 1.35648], [103.96064, 1.35747], [103.96201, 1.35746], [103.96202, 1.35635], [103.96115, 1.35635], [103.96046, 1.35567], [103.95965, 1.35648]]]}, {"name": "Edgefield Primary School", "lng": 103.90785, "lat": 1.40009, "kind": "Primary", "poly": [[[103.90788, 1.39949], [103.9066, 1.40046], [103.90716, 1.4012], [103.90839, 1.40025], [103.90788, 1.39949]]]}, {"name": "Edgefield Secondary School", "lng": 103.90269, "lat": 1.40059, "kind": "Secondary", "poly": [[[103.90219, 1.40116], [103.90199, 1.40112], [103.90192, 1.40103], [103.90149, 1.40041], [103.90141, 1.40013], [103.90153, 1.39983], [103.90258, 1.3992], [103.90263, 1.39912], [103.90268, 1.39914], [103.9034, 1.4006], [103.90219, 1.40116]]]}, {"name": "Elias Park Primary School", "lng": 103.94513, "lat": 1.37451, "kind": "Primary", "poly": [[[103.94497, 1.37578], [103.94619, 1.37509], [103.94556, 1.37421], [103.94422, 1.37474], [103.94497, 1.37578]]]}, {"name": "Endeavour Primary School", "lng": 103.81744, "lat": 1.45404, "kind": "Primary", "poly": [[[103.81765, 1.45518], [103.81841, 1.45462], [103.81794, 1.45381], [103.8169, 1.45369], [103.8168, 1.45461], [103.81715, 1.45471], [103.81733, 1.45482], [103.81765, 1.45518]]]}, {"name": "Eunoia Junior College", "lng": 103.84129, "lat": 1.36214, "kind": "Junior College"}, {"name": "Evergreen Primary School", "lng": 103.79455, "lat": 1.44415, "kind": "Primary", "poly": [[[103.79389, 1.44389], [103.79491, 1.44465], [103.79529, 1.44444], [103.79526, 1.44424], [103.7953, 1.44411], [103.79554, 1.44376], [103.79448, 1.44304], [103.79389, 1.44389]]]}, {"name": "Evergreen Secondary School", "lng": 103.79414, "lat": 1.44149, "kind": "Secondary", "poly": [[[103.79294, 1.44196], [103.79302, 1.44088], [103.79371, 1.44091], [103.79404, 1.44098], [103.7949, 1.44142], [103.79516, 1.44163], [103.79445, 1.44261], [103.79354, 1.44203], [103.79338, 1.44198], [103.79294, 1.44196]]]}, {"name": "Fairfield Methodist School (primary)", "lng": 103.78546, "lat": 1.301, "kind": "Primary", "poly": [[[103.78408, 1.30103], [103.78504, 1.29996], [103.78529, 1.29984], [103.78552, 1.29987], [103.78559, 1.30009], [103.78577, 1.30038], [103.78639, 1.30127], [103.78536, 1.30169], [103.78517, 1.30122], [103.78536, 1.30115], [103.78515, 1.30061], [103.78408, 1.30103]]]}, {"name": "Fairfield Methodist School (secondary)", "lng": 103.7841, "lat": 1.30163, "kind": "Secondary", "poly": [[[103.78411, 1.30274], [103.7847, 1.30248], [103.7849, 1.3023], [103.78489, 1.30187], [103.78536, 1.30169], [103.78517, 1.30122], [103.78536, 1.30115], [103.78515, 1.30061], [103.78408, 1.30103], [103.78343, 1.30181], [103.78387, 1.30217], [103.78411, 1.30274]]]}, {"name": "Farrer Park Primary School", "lng": 103.85077, "lat": 1.31237, "kind": "Primary", "poly": [[[103.84992, 1.31216], [103.85009, 1.31195], [103.85063, 1.31153], [103.85182, 1.31281], [103.85182, 1.31293], [103.85147, 1.31333], [103.84992, 1.31216]]]}, {"name": "Fengshan Primary School", "lng": 103.93171, "lat": 1.32981, "kind": "Primary", "poly": [[[103.93135, 1.3306], [103.93216, 1.33077], [103.93241, 1.3296], [103.93211, 1.32954], [103.93228, 1.32877], [103.93177, 1.32866], [103.93135, 1.3306]]]}, {"name": "Fern Green Primary School", "lng": 103.88033, "lat": 1.39727, "kind": "Primary", "poly": [[[103.88074, 1.39806], [103.87934, 1.39816], [103.87922, 1.39802], [103.87913, 1.39723], [103.88064, 1.39709], [103.88074, 1.39806]]]}, {"name": "Fernvale Primary School", "lng": 103.87445, "lat": 1.3903, "kind": "Primary", "poly": [[[103.87382, 1.39067], [103.87485, 1.39057], [103.87473, 1.3893], [103.8737, 1.3894], [103.87349, 1.38966], [103.8736, 1.38982], [103.87366, 1.39004], [103.8737, 1.39051], [103.87382, 1.39067]]]}, {"name": "First Toa Payoh Primary School", "lng": 103.85553, "lat": 1.34032, "kind": "Primary", "poly": [[[103.85526, 1.34098], [103.85658, 1.34098], [103.85658, 1.33993], [103.85512, 1.33995], [103.85526, 1.34098]]]}, {"name": "Frontier Primary School", "lng": 103.69968, "lat": 1.33664, "kind": "Primary", "poly": [[[103.69924, 1.33737], [103.70025, 1.33743], [103.70026, 1.33632], [103.69977, 1.33632], [103.69903, 1.33612], [103.69904, 1.3372], [103.69914, 1.33735], [103.69924, 1.33737]]]}, {"name": "Fuchun Primary School", "lng": 103.77819, "lat": 1.43048, "kind": "Primary", "poly": [[[103.77784, 1.43129], [103.77784, 1.42926], [103.7781, 1.42926], [103.7781, 1.43008], [103.77821, 1.43015], [103.77864, 1.43015], [103.77862, 1.43129], [103.77784, 1.43129]]]}, {"name": "Fuhua Primary School", "lng": 103.73609, "lat": 1.3366, "kind": "Primary", "poly": [[[103.73574, 1.33702], [103.73574, 1.33634], [103.73583, 1.33612], [103.73595, 1.33603], [103.73606, 1.33596], [103.73734, 1.33596], [103.7372, 1.33628], [103.73714, 1.33663], [103.73718, 1.33702], [103.73574, 1.33702]]]}, {"name": "Fuhua Secondary School", "lng": 103.72652, "lat": 1.34701, "kind": "Secondary", "poly": [[[103.72596, 1.34805], [103.72614, 1.34775], [103.72616, 1.3475], [103.72614, 1.34707], [103.72595, 1.34668], [103.72789, 1.3467], [103.72789, 1.34807], [103.72596, 1.34805]]]}, {"name": "Gan Eng Seng Primary School", "lng": 103.81555, "lat": 1.2856, "kind": "Primary", "poly": [[[103.8146, 1.286], [103.81486, 1.28604], [103.81573, 1.28671], [103.81571, 1.28661], [103.81618, 1.28658], [103.81633, 1.28653], [103.81581, 1.28575], [103.81551, 1.28488], [103.81452, 1.28515], [103.81457, 1.28529], [103.8146, 1.286]]]}, {"name": "Gan Eng Seng School", "lng": 103.82373, "lat": 1.28907, "kind": "Secondary", "poly": [[[103.82332, 1.28844], [103.82386, 1.2883], [103.82431, 1.28949], [103.82426, 1.29037], [103.82333, 1.29062], [103.82297, 1.28937], [103.82352, 1.28924], [103.82332, 1.28844]]]}, {"name": "Geylang Methodist School (primary)", "lng": 103.88363, "lat": 1.31814, "kind": "Primary", "poly": [[[103.88312, 1.31835], [103.88426, 1.31839], [103.88435, 1.31774], [103.8844, 1.31684], [103.88434, 1.3168], [103.88363, 1.31672], [103.88361, 1.31713], [103.88369, 1.31713], [103.88368, 1.31741], [103.88327, 1.31739], [103.88325, 1.31804], [103.88314, 1.31803], [103.88312, 1.31835]]]}, {"name": "Geylang Methodist School (secondary)", "lng": 103.88266, "lat": 1.31765, "kind": "Secondary", "poly": [[[103.88238, 1.31832], [103.88226, 1.3183], [103.88214, 1.31819], [103.8821, 1.31804], [103.88201, 1.31683], [103.88203, 1.3165], [103.8821, 1.31647], [103.88363, 1.31672], [103.88361, 1.31713], [103.88369, 1.31713], [103.88368, 1.31741], [103.88327, 1.31739], [103.88325, 1.31804], [103.88314, 1.31803], [103.88312, 1.31835], [103.88238, 1.31832]]]}, {"name": "Gongshang Primary School", "lng": 103.94914, "lat": 1.35712, "kind": "Primary", "poly": [[[103.94839, 1.35796], [103.94893, 1.35796], [103.94893, 1.35766], [103.95016, 1.35766], [103.95016, 1.35693], [103.95005, 1.35686], [103.94839, 1.35688], [103.94839, 1.35796]]]}, {"name": "Greendale Primary School", "lng": 103.91233, "lat": 1.39648, "kind": "Primary", "poly": [[[103.91181, 1.39631], [103.91302, 1.39532], [103.91357, 1.39607], [103.91235, 1.39707], [103.91181, 1.39631]]]}, {"name": "Greendale Secondary School", "lng": 103.9117, "lat": 1.39696, "kind": "Secondary", "poly": [[[103.91157, 1.39649], [103.91056, 1.39732], [103.91164, 1.39883], [103.91254, 1.39818], [103.91263, 1.39799], [103.91237, 1.3975], [103.91162, 1.39646], [103.91157, 1.39649]]]}, {"name": "Greenridge Primary School", "lng": 103.76779, "lat": 1.38589, "kind": "Primary", "poly": [[[103.76725, 1.38547], [103.76823, 1.38485], [103.76882, 1.38576], [103.76753, 1.38658], [103.76725, 1.38547]]]}, {"name": "Greenridge Secondary School", "lng": 103.764, "lat": 1.3756, "kind": "Secondary", "poly": [[[103.76315, 1.3757], [103.76346, 1.37408], [103.76403, 1.37414], [103.76491, 1.37446], [103.76462, 1.37597], [103.76315, 1.3757]]]}, {"name": "Greenwood Primary School", "lng": 103.80452, "lat": 1.44011, "kind": "Primary", "poly": [[[103.80386, 1.44029], [103.80421, 1.43944], [103.80477, 1.43964], [103.80498, 1.43963], [103.80531, 1.43949], [103.80569, 1.44034], [103.80482, 1.4407], [103.80386, 1.44029]]]}, {"name": "Guangyang Secondary School", "lng": 103.85021, "lat": 1.34441, "kind": "Secondary", "poly": [[[103.8511, 1.34522], [103.85026, 1.34542], [103.85012, 1.3455], [103.84993, 1.34582], [103.84979, 1.3458], [103.84973, 1.34545], [103.84942, 1.34548], [103.8494, 1.34532], [103.84888, 1.34538], [103.84873, 1.34442], [103.85098, 1.34415], [103.8511, 1.34522]]]}, {"name": "Hai Sing Catholic School", "lng": 103.95454, "lat": 1.37434, "kind": "Secondary", "poly": [[[103.95437, 1.37385], [103.95413, 1.37505], [103.95603, 1.37529], [103.95613, 1.3741], [103.95437, 1.37385]]]}, {"name": "Haig Girls' School", "lng": 103.9029, "lat": 1.31194, "kind": "Primary", "poly": [[[103.90167, 1.31227], [103.90283, 1.31242], [103.90365, 1.31128], [103.90364, 1.31121], [103.90325, 1.31093], [103.90285, 1.3115], [103.90278, 1.31151], [103.90237, 1.31122], [103.90167, 1.31227]]]}, {"name": "Henry Park Primary School", "lng": 103.7843, "lat": 1.31668, "kind": "Primary", "poly": [[[103.78335, 1.31595], [103.7839, 1.31577], [103.7846, 1.3166], [103.78481, 1.31798], [103.78418, 1.31806], [103.78364, 1.31678], [103.78335, 1.31595]]]}, {"name": "Hillgrove Secondary School", "lng": 103.75299, "lat": 1.35274, "kind": "Secondary", "poly": [[[103.75208, 1.35342], [103.75208, 1.35332], [103.75231, 1.35307], [103.75256, 1.35267], [103.75285, 1.35249], [103.75304, 1.35247], [103.75321, 1.35254], [103.7539, 1.35322], [103.7539, 1.35361], [103.75333, 1.35361], [103.7533, 1.35428], [103.75253, 1.35341], [103.75208, 1.35342]]]}, {"name": "Holy Innocents' High School", "lng": 103.8964, "lat": 1.37155, "kind": "Secondary", "poly": [[[103.89469, 1.37186], [103.8956, 1.3727], [103.89682, 1.37146], [103.89575, 1.3706], [103.89469, 1.37186]]]}, {"name": "Holy Innocents' Primary School", "lng": 103.89411, "lat": 1.36694, "kind": "Primary", "poly": [[[103.89293, 1.36667], [103.89446, 1.36602], [103.8944, 1.36753], [103.89375, 1.3675], [103.89293, 1.36667]]]}, {"name": "Hong Wen School", "lng": 103.85763, "lat": 1.32176, "kind": "Primary", "poly": [[[103.85671, 1.32165], [103.85757, 1.32097], [103.85832, 1.32199], [103.85753, 1.32268], [103.85671, 1.32165]]]}, {"name": "Horizon Primary School", "lng": 103.9134, "lat": 1.39955, "kind": "Primary", "poly": [[[103.91344, 1.39915], [103.91217, 1.40006], [103.91265, 1.40082], [103.91397, 1.39988], [103.91344, 1.39915]]]}, {"name": "Hougang Primary School", "lng": 103.88081, "lat": 1.37738, "kind": "Primary", "poly": [[[103.88073, 1.37889], [103.88081, 1.37783], [103.88055, 1.37781], [103.88062, 1.37707], [103.88145, 1.37714], [103.88134, 1.37892], [103.88073, 1.37889]]]}, {"name": "Hougang Secondary School", "lng": 103.88254, "lat": 1.37763, "kind": "Secondary", "poly": [[[103.88155, 1.37897], [103.88167, 1.37716], [103.88173, 1.37713], [103.88333, 1.37722], [103.88328, 1.37828], [103.88233, 1.37824], [103.88228, 1.37902], [103.88155, 1.37897]]]}, {"name": "Hua Yi Secondary School", "lng": 103.72183, "lat": 1.35234, "kind": "Secondary", "poly": [[[103.72093, 1.35303], [103.72094, 1.35114], [103.72232, 1.35115], [103.72231, 1.35303], [103.72093, 1.35303]]]}, {"name": "Huamin Primary School", "lng": 103.84424, "lat": 1.42697, "kind": "Primary", "poly": [[[103.84524, 1.4274], [103.84499, 1.42714], [103.84425, 1.42712], [103.84425, 1.42743], [103.84385, 1.42742], [103.84386, 1.42708], [103.84325, 1.42707], [103.84327, 1.42661], [103.84369, 1.42663], [103.84369, 1.42658], [103.84528, 1.42664], [103.84524, 1.4274]]]}, {"name": "Hwa Chong Institution", "lng": 103.8057, "lat": 1.32495, "kind": "Secondary & JC"}, {"name": "Innova Primary School", "lng": 103.79061, "lat": 1.42897, "kind": "Primary", "poly": [[[103.79168, 1.42906], [103.78998, 1.4286], [103.78981, 1.42944], [103.78991, 1.42955], [103.79131, 1.4298], [103.79144, 1.42971], [103.79168, 1.42906]]]}, {"name": "Jiemin Primary School", "lng": 103.83043, "lat": 1.42769, "kind": "Primary", "poly": [[[103.82985, 1.42889], [103.82969, 1.42871], [103.82955, 1.42869], [103.82964, 1.42726], [103.83096, 1.42732], [103.83108, 1.4274], [103.83127, 1.42765], [103.82985, 1.42889]]]}, {"name": "Jing Shan Primary School", "lng": 103.85213, "lat": 1.37223, "kind": "Primary", "poly": [[[103.85162, 1.37277], [103.85239, 1.37262], [103.85237, 1.37244], [103.85253, 1.37135], [103.85154, 1.3711], [103.85131, 1.37145], [103.85147, 1.37185], [103.85159, 1.37186], [103.85162, 1.37277]]]}, {"name": "Junyuan Primary School", "lng": 103.93922, "lat": 1.34787, "kind": "Primary", "poly": [[[103.93852, 1.3471], [103.93914, 1.3471], [103.93915, 1.34754], [103.94038, 1.34755], [103.94019, 1.34801], [103.93996, 1.34824], [103.93984, 1.34828], [103.93847, 1.34828], [103.93852, 1.3471]]]}, {"name": "Junyuan Secondary School", "lng": 103.93389, "lat": 1.35361, "kind": "Secondary", "poly": [[[103.93328, 1.35419], [103.93405, 1.35374], [103.93454, 1.35357], [103.93395, 1.35219], [103.9325, 1.35278], [103.93328, 1.35419]]]}, {"name": "Jurong Pioneer Junior College", "lng": 103.75437, "lat": 1.38437, "kind": "Junior College", "poly": [[[103.75291, 1.3846], [103.7528, 1.38439], [103.75292, 1.38392], [103.75292, 1.38353], [103.75436, 1.38304], [103.75451, 1.38329], [103.75456, 1.38357], [103.75433, 1.38393], [103.75433, 1.38408], [103.75385, 1.38436], [103.75291, 1.3846]]]}, {"name": "Jurong Primary School", "lng": 103.73316, "lat": 1.34844, "kind": "Primary", "poly": [[[103.73302, 1.34958], [103.73379, 1.34879], [103.73313, 1.34793], [103.73272, 1.34812], [103.73234, 1.34813], [103.73232, 1.34866], [103.73302, 1.34958]]]}, {"name": "Jurong Secondary School", "lng": 103.72395, "lat": 1.33002, "kind": "Secondary", "poly": [[[103.72359, 1.33132], [103.72478, 1.33131], [103.72485, 1.33119], [103.72473, 1.33049], [103.72467, 1.32962], [103.72306, 1.32968], [103.72313, 1.33001], [103.72359, 1.33132]]]}, {"name": "Jurong West Primary School", "lng": 103.69874, "lat": 1.33971, "kind": "Primary", "poly": [[[103.69822, 1.33979], [103.69865, 1.33862], [103.69976, 1.33884], [103.69952, 1.34003], [103.69822, 1.33979]]]}, {"name": "Jurong West Secondary School", "lng": 103.7021, "lat": 1.33526, "kind": "Secondary", "poly": [[[103.70134, 1.3359], [103.70134, 1.33502], [103.70346, 1.33502], [103.70346, 1.33622], [103.70167, 1.33621], [103.70167, 1.3359], [103.70134, 1.3359]]]}, {"name": "Jurongville Secondary School", "lng": 103.72891, "lat": 1.35129, "kind": "Secondary", "poly": [[[103.72937, 1.35111], [103.72935, 1.35004], [103.72948, 1.35003], [103.72962, 1.35071], [103.7295, 1.35073], [103.72964, 1.35148], [103.73031, 1.35193], [103.72869, 1.35288], [103.72853, 1.35289], [103.72834, 1.35268], [103.72835, 1.35111], [103.72937, 1.35111]]]}, {"name": "Juying Secondary School", "lng": 103.68731, "lat": 1.33872, "kind": "Secondary", "poly": [[[103.6869, 1.3397], [103.68682, 1.33908], [103.68629, 1.33867], [103.68708, 1.33762], [103.6872, 1.33763], [103.68749, 1.33729], [103.68758, 1.33728], [103.68833, 1.33787], [103.68742, 1.33901], [103.68748, 1.33956], [103.68707, 1.33962], [103.6869, 1.3397]]]}, {"name": "Keming Primary School", "lng": 103.75645, "lat": 1.34553, "kind": "Primary", "poly": [[[103.75666, 1.34617], [103.75591, 1.34577], [103.7556, 1.34558], [103.75557, 1.34552], [103.75557, 1.34543], [103.75615, 1.34434], [103.75656, 1.34451], [103.75723, 1.34525], [103.75684, 1.34594], [103.75666, 1.34617]]]}, {"name": "Kent Ridge Secondary School", "lng": 103.76489, "lat": 1.30123, "kind": "Secondary", "poly": [[[103.7641, 1.30168], [103.76472, 1.30019], [103.76613, 1.3006], [103.7655, 1.30212], [103.76516, 1.30197], [103.7641, 1.30168]]]}, {"name": "Kheng Cheng School", "lng": 103.84714, "lat": 1.33729, "kind": "Primary", "poly": [[[103.84754, 1.33801], [103.84751, 1.33754], [103.84686, 1.33754], [103.84682, 1.33652], [103.84804, 1.33652], [103.84805, 1.33785], [103.84754, 1.33801]]]}, {"name": "Kong Hwa School", "lng": 103.88835, "lat": 1.311, "kind": "Primary", "poly": [[[103.88874, 1.31167], [103.88888, 1.31113], [103.88874, 1.31089], [103.88787, 1.31069], [103.88693, 1.31075], [103.88681, 1.31128], [103.88874, 1.31167]]]}, {"name": "Kranji Primary School", "lng": 103.74741, "lat": 1.39418, "kind": "Primary", "poly": [[[103.74622, 1.39381], [103.74685, 1.39335], [103.74798, 1.39345], [103.74795, 1.39414], [103.748, 1.39435], [103.74748, 1.39431], [103.74677, 1.39463], [103.74622, 1.39381]]]}, {"name": "Kranji Secondary School", "lng": 103.74119, "lat": 1.39005, "kind": "Secondary", "poly": [[[103.7419, 1.39004], [103.74188, 1.38996], [103.74182, 1.38993], [103.74071, 1.38969], [103.74043, 1.38967], [103.74034, 1.39063], [103.74047, 1.39146], [103.74206, 1.39116], [103.7419, 1.39004]]]}, {"name": "Kuo Chuan Presbyterian Primary School", "lng": 103.85502, "lat": 1.3494, "kind": "Primary", "poly": [[[103.85397, 1.34967], [103.85443, 1.34996], [103.85586, 1.34968], [103.85569, 1.3489], [103.8552, 1.34901], [103.85462, 1.34863], [103.85397, 1.34967]]]}, {"name": "Kuo Chuan Presbyterian Secondary School", "lng": 103.85498, "lat": 1.35017, "kind": "Secondary", "poly": [[[103.85397, 1.34967], [103.85443, 1.34996], [103.85586, 1.34968], [103.85593, 1.35001], [103.85481, 1.35127], [103.85349, 1.35042], [103.85397, 1.34967]]]}, {"name": "Lakeside Primary School", "lng": 103.71809, "lat": 1.3382, "kind": "Primary", "poly": [[[103.71709, 1.33836], [103.71729, 1.33793], [103.71753, 1.3376], [103.71777, 1.33766], [103.71878, 1.33831], [103.71883, 1.33844], [103.71837, 1.33918], [103.71709, 1.33836]]]}, {"name": "Lianhua Primary School", "lng": 103.75417, "lat": 1.35424, "kind": "Primary", "poly": [[[103.75329, 1.35459], [103.75333, 1.35361], [103.7539, 1.35361], [103.7539, 1.35322], [103.7548, 1.35332], [103.75481, 1.35426], [103.7546, 1.35459], [103.75434, 1.35472], [103.75388, 1.35484], [103.75388, 1.35461], [103.75329, 1.35459]]]}, {"name": "Loyang View Secondary School", "lng": 103.95694, "lat": 1.36658, "kind": "Secondary", "poly": [[[103.95668, 1.36738], [103.95764, 1.3671], [103.95861, 1.36667], [103.95792, 1.36557], [103.95688, 1.36602], [103.95667, 1.36626], [103.95651, 1.36663], [103.95648, 1.36692], [103.95668, 1.36738]]]}, {"name": "Maha Bodhi School", "lng": 103.9013, "lat": 1.32847, "kind": "Primary", "poly": [[[103.9006, 1.32871], [103.90076, 1.32789], [103.90266, 1.32825], [103.90188, 1.32902], [103.90177, 1.32904], [103.90094, 1.3289], [103.90075, 1.32894], [103.9006, 1.32871]]]}, {"name": "Manjusri Secondary School", "lng": 103.90172, "lat": 1.32747, "kind": "Secondary", "poly": [[[103.90266, 1.32825], [103.90041, 1.32782], [103.90058, 1.32688], [103.90169, 1.32712], [103.90289, 1.32747], [103.90301, 1.32764], [103.903, 1.32781], [103.90266, 1.32825]]]}, {"name": "Maris Stella High School", "lng": 103.87785, "lat": 1.34139, "kind": "Primary & Secondary", "poly": [[[103.87785, 1.34077], [103.87907, 1.34176], [103.88006, 1.34244], [103.87861, 1.34321], [103.87671, 1.34175], [103.87763, 1.34059], [103.87785, 1.34077]]]}, {"name": "Marsiling Primary School", "lng": 103.77364, "lat": 1.43393, "kind": "Primary", "poly": [[[103.7741, 1.43489], [103.7741, 1.43358], [103.77274, 1.43358], [103.77254, 1.43467], [103.77269, 1.4347], [103.77279, 1.43478], [103.77335, 1.43478], [103.77335, 1.43482], [103.7735, 1.43489], [103.7741, 1.43489]]]}, {"name": "Marsiling Secondary School", "lng": 103.77601, "lat": 1.43664, "kind": "Secondary", "poly": [[[103.77657, 1.43857], [103.77657, 1.4365], [103.77532, 1.43649], [103.77531, 1.43814], [103.77566, 1.43815], [103.77564, 1.43851], [103.77657, 1.43857]]]}, {"name": "Marymount Convent School", "lng": 103.84002, "lat": 1.34037, "kind": "Primary", "poly": [[[103.83884, 1.34009], [103.83889, 1.34003], [103.839, 1.34002], [103.83939, 1.3401], [103.83983, 1.33945], [103.84033, 1.33985], [103.84046, 1.34109], [103.83971, 1.34134], [103.83963, 1.34105], [103.83944, 1.3407], [103.8392, 1.3404], [103.83884, 1.34009]]]}, {"name": "Mayflower Primary School", "lng": 103.84325, "lat": 1.37638, "kind": "Primary", "poly": [[[103.84248, 1.3771], [103.84263, 1.37591], [103.84349, 1.37602], [103.84383, 1.37629], [103.84391, 1.37647], [103.84398, 1.37686], [103.84396, 1.3771], [103.84383, 1.37719], [103.843, 1.37718], [103.84248, 1.3771]]]}, {"name": "Mayflower Secondary School", "lng": 103.83536, "lat": 1.36827, "kind": "Secondary", "poly": [[[103.83677, 1.3693], [103.83528, 1.36981], [103.83471, 1.36814], [103.83475, 1.36807], [103.83582, 1.3677], [103.83588, 1.36773], [103.83625, 1.36859], [103.83641, 1.36883], [103.83681, 1.36926], [103.83677, 1.3693]]]}, {"name": "Mee Toh School", "lng": 103.90857, "lat": 1.39485, "kind": "Primary", "poly": [[[103.909, 1.39398], [103.90894, 1.39398], [103.90761, 1.3951], [103.90819, 1.3958], [103.91006, 1.39428], [103.90996, 1.39413], [103.90948, 1.39457], [103.909, 1.39398]]]}, {"name": "Meridian Primary School", "lng": 103.93489, "lat": 1.37553, "kind": "Primary", "poly": [[[103.93525, 1.37694], [103.93601, 1.3764], [103.93539, 1.37555], [103.93523, 1.37566], [103.93463, 1.37485], [103.934, 1.37525], [103.93525, 1.37694]]]}, {"name": "Meridian Secondary School", "lng": 103.94897, "lat": 1.36725, "kind": "Secondary", "poly": [[[103.94875, 1.3685], [103.94855, 1.3681], [103.94812, 1.36825], [103.94782, 1.36722], [103.94975, 1.36675], [103.95005, 1.36793], [103.94875, 1.3685]]]}, {"name": "Methodist Girls' School (primary)", "lng": 103.78338, "lat": 1.33266, "kind": "Primary", "poly": [[[103.78276, 1.33429], [103.78238, 1.33363], [103.78235, 1.33332], [103.78242, 1.33285], [103.7835, 1.33209], [103.78394, 1.33142], [103.7842, 1.33151], [103.78441, 1.33152], [103.78504, 1.33272], [103.78339, 1.33367], [103.78314, 1.33403], [103.78276, 1.33429]]]}, {"name": "Methodist Girls' School (secondary)", "lng": 103.88512, "lat": 1.35097, "kind": "Secondary", "poly": [[[103.88608, 1.34916], [103.88583, 1.35165], [103.8846, 1.35116], [103.88467, 1.35047], [103.88474, 1.35044], [103.88527, 1.3505], [103.88537, 1.34943], [103.88554, 1.34936], [103.88579, 1.34915], [103.88608, 1.34916]]]}, {"name": "Millennia Institute", "lng": 103.74159, "lat": 1.35032, "kind": "Centralised Institute", "poly": [[[103.74158, 1.34867], [103.74157, 1.34969], [103.74034, 1.34968], [103.74035, 1.34875], [103.741, 1.34875], [103.74114, 1.34867], [103.74158, 1.34867]]]}, {"name": "Montfort Junior School", "lng": 103.88974, "lat": 1.37362, "kind": "Primary", "poly": [[[103.88884, 1.37499], [103.88968, 1.37561], [103.88997, 1.37509], [103.88999, 1.37327], [103.88978, 1.37306], [103.88899, 1.37403], [103.88936, 1.37432], [103.88884, 1.37499]]]}, {"name": "Montfort Secondary School", "lng": 103.88893, "lat": 1.37396, "kind": "Secondary", "poly": [[[103.88841, 1.37294], [103.88846, 1.37439], [103.88831, 1.37458], [103.88884, 1.37499], [103.88936, 1.37432], [103.88899, 1.37403], [103.88978, 1.37306], [103.88962, 1.37292], [103.88841, 1.37294]]]}, {"name": "Nan Chiau High School", "lng": 103.89, "lat": 1.3888, "kind": "Secondary", "poly": [[[103.88902, 1.389], [103.8906, 1.38841], [103.89107, 1.38977], [103.88969, 1.39024], [103.88959, 1.39022], [103.88941, 1.39008], [103.88902, 1.389]]]}, {"name": "Nan Chiau Primary School", "lng": 103.89118, "lat": 1.39221, "kind": "Primary", "poly": [[[103.89013, 1.39187], [103.89166, 1.39134], [103.89195, 1.39218], [103.89043, 1.39271], [103.89013, 1.39187]]]}, {"name": "Nan Hua High School", "lng": 103.76856, "lat": 1.3081, "kind": "Secondary", "poly": [[[103.76792, 1.30878], [103.77001, 1.30917], [103.77021, 1.30809], [103.76926, 1.30773], [103.76895, 1.30768], [103.76872, 1.30771], [103.76828, 1.30794], [103.76805, 1.30818], [103.76793, 1.30846], [103.76792, 1.30878]]]}, {"name": "Nan Hua Primary School", "lng": 103.76118, "lat": 1.3192, "kind": "Primary", "poly": [[[103.76068, 1.31931], [103.76142, 1.31874], [103.76201, 1.31941], [103.76218, 1.31934], [103.76249, 1.31953], [103.76187, 1.32033], [103.76176, 1.3204], [103.76148, 1.32028], [103.76135, 1.32015], [103.76068, 1.31931]]]}, {"name": "Nanyang Girls' High School", "lng": 103.80242, "lat": 1.33058, "kind": "Secondary", "poly": [[[103.801, 1.33014], [103.80288, 1.32952], [103.80353, 1.33062], [103.80165, 1.33143], [103.801, 1.33014]]]}, {"name": "Nanyang Junior College", "lng": 103.8665, "lat": 1.35028, "kind": "Junior College"}, {"name": "Nanyang Primary School", "lng": 103.80775, "lat": 1.32085, "kind": "Primary", "poly": [[[103.80755, 1.32175], [103.80755, 1.32138], [103.80683, 1.32139], [103.80683, 1.32097], [103.80764, 1.32096], [103.80763, 1.3207], [103.80784, 1.32055], [103.8079, 1.32032], [103.80812, 1.32011], [103.80921, 1.32127], [103.80873, 1.32173], [103.80755, 1.32175]]]}, {"name": "National Junior College", "lng": 103.80411, "lat": 1.33029, "kind": "Secondary & JC", "poly": [[[103.80504, 1.3327], [103.80425, 1.33258], [103.80367, 1.3323], [103.80307, 1.33084], [103.80353, 1.33062], [103.80288, 1.32952], [103.80344, 1.3293], [103.80458, 1.32862], [103.80536, 1.32991], [103.80544, 1.32986], [103.80549, 1.32995], [103.80555, 1.33103], [103.80647, 1.33106], [103.80512, 1.33242], [103.80504, 1.3327]]]}, {"name": "Naval Base Primary School", "lng": 103.83886, "lat": 1.41629, "kind": "Primary", "poly": [[[103.83811, 1.41731], [103.8383, 1.41682], [103.8396, 1.41627], [103.83929, 1.41554], [103.83825, 1.41601], [103.83832, 1.41617], [103.83812, 1.41625], [103.83773, 1.41715], [103.83811, 1.41731]]]}, {"name": "Naval Base Secondary School", "lng": 103.83105, "lat": 1.41938, "kind": "Secondary", "poly": [[[103.83004, 1.41926], [103.83158, 1.42007], [103.83195, 1.4192], [103.83143, 1.41897], [103.83111, 1.41834], [103.83043, 1.4184], [103.83048, 1.41899], [103.83002, 1.41905], [103.83004, 1.41926]]]}, {"name": "New Town Primary School", "lng": 103.8001, "lat": 1.29964, "kind": "Primary", "poly": [[[103.79881, 1.30006], [103.79958, 1.30042], [103.7999, 1.30078], [103.80043, 1.30027], [103.80053, 1.30009], [103.80056, 1.29988], [103.8003, 1.29874], [103.80008, 1.2988], [103.7998, 1.29964], [103.79889, 1.29988], [103.79881, 1.30006]]]}, {"name": "New Town Secondary School", "lng": 103.77319, "lat": 1.30978, "kind": "Secondary", "poly": [[[103.77428, 1.31047], [103.77425, 1.30896], [103.77291, 1.30906], [103.77294, 1.31044], [103.77283, 1.31044], [103.77281, 1.31078], [103.77375, 1.31078], [103.77428, 1.31047]]]}, {"name": "Ngee Ann Primary School", "lng": 103.91757, "lat": 1.30553, "kind": "Primary", "poly": [[[103.91705, 1.30576], [103.91711, 1.30528], [103.91881, 1.30507], [103.9186, 1.30609], [103.91816, 1.30598], [103.91802, 1.30601], [103.91705, 1.30576]]]}, {"name": "Ngee Ann Secondary School", "lng": 103.95675, "lat": 1.35448, "kind": "Secondary", "poly": [[[103.9557, 1.35505], [103.95553, 1.35396], [103.95563, 1.35389], [103.95771, 1.35388], [103.95771, 1.35507], [103.9557, 1.35505]]]}, {"name": "North Spring Primary School", "lng": 103.9032, "lat": 1.38706, "kind": "Primary", "poly": [[[103.90365, 1.38666], [103.90282, 1.38706], [103.9036, 1.38824], [103.90431, 1.38778], [103.9045, 1.38742], [103.90409, 1.387], [103.90365, 1.38666]]]}, {"name": "North View Primary School", "lng": 103.84838, "lat": 1.42745, "kind": "Primary", "poly": [[[103.84791, 1.42819], [103.84937, 1.42825], [103.84941, 1.42729], [103.84895, 1.42727], [103.84895, 1.4272], [103.84795, 1.42716], [103.84791, 1.42819]]]}, {"name": "North Vista Primary School", "lng": 103.89585, "lat": 1.38289, "kind": "Primary", "poly": [[[103.89529, 1.38357], [103.89517, 1.38262], [103.89661, 1.38228], [103.89681, 1.38317], [103.89529, 1.38357]]]}, {"name": "North Vista Secondary School", "lng": 103.89919, "lat": 1.38113, "kind": "Secondary", "poly": [[[103.89845, 1.38073], [103.89949, 1.38081], [103.89952, 1.38132], [103.89968, 1.3817], [103.89966, 1.38177], [103.8992, 1.38211], [103.89891, 1.38243], [103.89858, 1.38266], [103.89836, 1.38268], [103.89821, 1.38264], [103.89794, 1.3824], [103.89776, 1.38218], [103.89762, 1.38188], [103.8984, 1.38134], [103.89845, 1.38073]]]}, {"name": "Northbrooks Secondary School", "lng": 103.84515, "lat": 1.42081, "kind": "Secondary", "poly": [[[103.84567, 1.42068], [103.84561, 1.42194], [103.84389, 1.42186], [103.84395, 1.42059], [103.84567, 1.42068]]]}, {"name": "Northland Primary School", "lng": 103.84079, "lat": 1.4213, "kind": "Primary", "poly": [[[103.83974, 1.42143], [103.84107, 1.42197], [103.84144, 1.42103], [103.84012, 1.42049], [103.83974, 1.42143]]]}, {"name": "Northland Secondary School", "lng": 103.8401, "lat": 1.4358, "kind": "Secondary", "poly": [[[103.83952, 1.43649], [103.84008, 1.43497], [103.84127, 1.43538], [103.84217, 1.4362], [103.84167, 1.43674], [103.84086, 1.43604], [103.84053, 1.43684], [103.83952, 1.43649]]]}, {"name": "Northlight School", "lng": 103.85576, "lat": 1.3191, "kind": "Secondary", "poly": [[[103.85454, 1.31907], [103.85557, 1.31845], [103.85669, 1.31986], [103.85576, 1.3206], [103.85454, 1.31907]]]}, {"name": "Northoaks Primary School", "lng": 103.81366, "lat": 1.45673, "kind": "Primary", "poly": [[[103.81435, 1.45778], [103.81245, 1.45742], [103.81281, 1.45615], [103.81458, 1.45649], [103.81435, 1.45778]]]}, {"name": "Northshore Primary School", "lng": 103.90442, "lat": 1.41814, "kind": "Primary", "poly": [[[103.90555, 1.41864], [103.90482, 1.41871], [103.90452, 1.41868], [103.90387, 1.41849], [103.90382, 1.41837], [103.90398, 1.41807], [103.90426, 1.41766], [103.90433, 1.41762], [103.90503, 1.4177], [103.90538, 1.41762], [103.90555, 1.41864]]]}, {"name": "Nus High School Of Mathematics And Science", "lng": 103.77015, "lat": 1.30601, "kind": "Secondary & JC", "poly": [[[103.76885, 1.30745], [103.76897, 1.30672], [103.76867, 1.306], [103.76923, 1.30562], [103.76951, 1.30559], [103.77048, 1.30592], [103.77066, 1.30604], [103.77079, 1.30622], [103.77087, 1.30647], [103.77099, 1.3065], [103.77116, 1.30734], [103.77047, 1.30738], [103.7704, 1.30791], [103.76925, 1.30748], [103.76885, 1.30745]]]}, {"name": "Oasis Primary School", "lng": 103.91112, "lat": 1.40462, "kind": "Primary", "poly": [[[103.91017, 1.40433], [103.91114, 1.4057], [103.9115, 1.40538], [103.91179, 1.40498], [103.911, 1.40392], [103.9109, 1.40389], [103.91078, 1.40393], [103.91017, 1.40433]]]}, {"name": "Opera Estate Primary School", "lng": 103.92375, "lat": 1.31997, "kind": "Primary", "poly": [[[103.92434, 1.31953], [103.92396, 1.32037], [103.92327, 1.32006], [103.92323, 1.31914], [103.92486, 1.31899], [103.92471, 1.31931], [103.92506, 1.31947], [103.92491, 1.31978], [103.92434, 1.31953]]]}, {"name": "Orchid Park Secondary School", "lng": 103.83786, "lat": 1.41532, "kind": "Secondary", "poly": [[[103.83773, 1.41715], [103.83812, 1.41625], [103.83832, 1.41617], [103.83825, 1.41601], [103.83929, 1.41554], [103.83885, 1.4145], [103.83877, 1.41445], [103.83713, 1.41525], [103.83775, 1.41638], [103.83747, 1.41705], [103.83773, 1.41715]]]}, {"name": "Outram Secondary School", "lng": 103.89123, "lat": 1.39775, "kind": "Secondary", "poly": [[[103.89035, 1.39866], [103.89016, 1.3972], [103.89159, 1.39703], [103.89191, 1.39899], [103.89172, 1.39896], [103.89099, 1.39859], [103.89035, 1.39866]]]}, {"name": "Palm View Primary School", "lng": 103.89122, "lat": 1.38384, "kind": "Primary", "poly": [[[103.89099, 1.38503], [103.89084, 1.38464], [103.89051, 1.38401], [103.89052, 1.38393], [103.89055, 1.38385], [103.89122, 1.38325], [103.89136, 1.38306], [103.89184, 1.38362], [103.89195, 1.38404], [103.89129, 1.38429], [103.8915, 1.38484], [103.89099, 1.38503]]]}, {"name": "Park View Primary School", "lng": 103.93954, "lat": 1.37738, "kind": "Primary", "poly": [[[103.93834, 1.37712], [103.93901, 1.37662], [103.93911, 1.37663], [103.94017, 1.37803], [103.93942, 1.37859], [103.93834, 1.37712]]]}, {"name": "Pasir Ris Crest Secondary School", "lng": 103.95973, "lat": 1.37284, "kind": "Secondary", "poly": [[[103.95881, 1.37227], [103.96049, 1.37201], [103.96076, 1.37323], [103.9591, 1.37359], [103.95902, 1.37355], [103.95896, 1.37343], [103.95881, 1.37227]]]}, {"name": "Pasir Ris Primary School", "lng": 103.96292, "lat": 1.37245, "kind": "Primary", "poly": [[[103.96231, 1.3718], [103.96371, 1.37175], [103.96374, 1.37296], [103.96287, 1.373], [103.96286, 1.37277], [103.96232, 1.37279], [103.96235, 1.37251], [103.96231, 1.3718]]]}, {"name": "Pasir Ris Secondary School", "lng": 103.94896, "lat": 1.35423, "kind": "Secondary", "poly": [[[103.94777, 1.35518], [103.94779, 1.35392], [103.94772, 1.35352], [103.94905, 1.35353], [103.94917, 1.35358], [103.94925, 1.3537], [103.94927, 1.35385], [103.94927, 1.35521], [103.94895, 1.35517], [103.94777, 1.35518]]]}, {"name": "Paya Lebar Methodist Girls' School (primary)", "lng": 103.88497, "lat": 1.34947, "kind": "Primary", "poly": [[[103.8844, 1.35112], [103.88458, 1.34935], [103.8853, 1.3493], [103.8861, 1.34888], [103.88608, 1.34916], [103.88579, 1.34915], [103.88554, 1.34936], [103.88537, 1.34943], [103.88527, 1.3505], [103.88474, 1.35044], [103.88467, 1.35047], [103.8846, 1.35116], [103.8844, 1.35112]]]}, {"name": "Paya Lebar Methodist Girls' School (secondary)", "lng": 103.88512, "lat": 1.35097, "kind": "Secondary", "poly": [[[103.88608, 1.34916], [103.88583, 1.35165], [103.8846, 1.35116], [103.88467, 1.35047], [103.88474, 1.35044], [103.88527, 1.3505], [103.88537, 1.34943], [103.88554, 1.34936], [103.88579, 1.34915], [103.88608, 1.34916]]]}, {"name": "Pei Chun Public School", "lng": 103.85559, "lat": 1.33737, "kind": "Primary", "poly": [[[103.85554, 1.33802], [103.85654, 1.33714], [103.8557, 1.33621], [103.85484, 1.33701], [103.85494, 1.33711], [103.85482, 1.33722], [103.85554, 1.33802]]]}, {"name": "Pei Hwa Presbyterian Primary School", "lng": 103.77625, "lat": 1.33807, "kind": "Primary", "poly": [[[103.77628, 1.33868], [103.77606, 1.33838], [103.77549, 1.33796], [103.77571, 1.33773], [103.77661, 1.33773], [103.77682, 1.33824], [103.77628, 1.33868]]]}, {"name": "Pei Hwa Secondary School", "lng": 103.87846, "lat": 1.39038, "kind": "Secondary", "poly": [[[103.87751, 1.38991], [103.8771, 1.391], [103.87881, 1.39166], [103.87896, 1.39163], [103.87905, 1.39151], [103.87916, 1.39108], [103.87918, 1.39055], [103.87913, 1.39006], [103.87814, 1.39016], [103.87751, 1.38991]]]}, {"name": "Pei Tong Primary School", "lng": 103.76744, "lat": 1.31667, "kind": "Primary", "poly": [[[103.76729, 1.31681], [103.76729, 1.31551], [103.7682, 1.31551], [103.76824, 1.31556], [103.76824, 1.3165], [103.76791, 1.31709], [103.76729, 1.31681]]]}, {"name": "Peicai Secondary School", "lng": 103.87001, "lat": 1.35952, "kind": "Secondary", "poly": [[[103.87063, 1.35837], [103.87188, 1.35981], [103.87077, 1.36032], [103.86965, 1.35959], [103.87017, 1.35888], [103.87063, 1.35837]]]}, {"name": "Peirce Secondary School", "lng": 103.83022, "lat": 1.36666, "kind": "Secondary", "poly": [[[103.82846, 1.36707], [103.83068, 1.3669], [103.8306, 1.36577], [103.83046, 1.36553], [103.82987, 1.36586], [103.82983, 1.36577], [103.82952, 1.36595], [103.82937, 1.36573], [103.82839, 1.36606], [103.82846, 1.36707]]]}, {"name": "Peiying Primary School", "lng": 103.83014, "lat": 1.41742, "kind": "Primary", "poly": [[[103.83002, 1.41905], [103.83048, 1.41899], [103.83043, 1.4184], [103.83111, 1.41834], [103.83027, 1.41656], [103.82983, 1.41672], [103.83002, 1.41905]]]}, {"name": "Pioneer Primary School", "lng": 103.73279, "lat": 1.35443, "kind": "Primary", "poly": [[[103.73298, 1.3555], [103.7339, 1.35454], [103.73304, 1.35372], [103.73213, 1.35465], [103.73298, 1.3555]]]}, {"name": "Poi Ching School", "lng": 103.93525, "lat": 1.35765, "kind": "Primary", "poly": [[[103.93475, 1.35844], [103.93475, 1.3574], [103.93625, 1.35741], [103.93625, 1.35814], [103.93599, 1.35838], [103.93575, 1.35845], [103.93475, 1.35844]]]}, {"name": "Presbyterian High School", "lng": 103.84315, "lat": 1.38201, "kind": "Secondary", "poly": [[[103.84243, 1.38377], [103.843, 1.38383], [103.84377, 1.38179], [103.84221, 1.38164], [103.84172, 1.38256], [103.84254, 1.38263], [103.84243, 1.38377]]]}, {"name": "Princess Elizabeth Primary School", "lng": 103.74102, "lat": 1.3492, "kind": "Primary", "poly": [[[103.74158, 1.34867], [103.74157, 1.34969], [103.74034, 1.34968], [103.74035, 1.34875], [103.741, 1.34875], [103.74114, 1.34867], [103.74158, 1.34867]]]}, {"name": "Punggol Cove Primary School", "lng": 103.8989, "lat": 1.41158, "kind": "Primary", "poly": [[[103.89869, 1.41245], [103.89847, 1.41202], [103.89845, 1.41184], [103.89838, 1.41172], [103.89838, 1.41156], [103.89844, 1.41148], [103.89897, 1.41123], [103.8995, 1.41105], [103.89964, 1.41106], [103.89976, 1.41114], [103.9001, 1.41183], [103.89869, 1.41245]]]}, {"name": "Punggol Green Primary School", "lng": 103.89879, "lat": 1.40173, "kind": "Primary", "poly": [[[103.8978, 1.40137], [103.89852, 1.40113], [103.89867, 1.40115], [103.89885, 1.40126], [103.89895, 1.40141], [103.89908, 1.40183], [103.89916, 1.40225], [103.89909, 1.40246], [103.89901, 1.40253], [103.89864, 1.40266], [103.89829, 1.40274], [103.8978, 1.40137]]]}, {"name": "Punggol Primary School", "lng": 103.89467, "lat": 1.3782, "kind": "Primary", "poly": [[[103.89419, 1.37695], [103.89423, 1.37863], [103.8953, 1.37861], [103.89528, 1.37765], [103.89502, 1.37766], [103.89502, 1.37693], [103.89419, 1.37695]]]}, {"name": "Punggol Secondary School", "lng": 103.90921, "lat": 1.40206, "kind": "Secondary", "poly": [[[103.90914, 1.40128], [103.91014, 1.40266], [103.90907, 1.40342], [103.90797, 1.40188], [103.90891, 1.40125], [103.90901, 1.40123], [103.90914, 1.40128]]]}, {"name": "Punggol View Primary School", "lng": 103.9053, "lat": 1.40505, "kind": "Primary", "poly": [[[103.9045, 1.40531], [103.90599, 1.40453], [103.90632, 1.40517], [103.906, 1.40533], [103.9061, 1.40551], [103.90495, 1.40612], [103.9045, 1.40531]]]}, {"name": "Qifa Primary School", "lng": 103.75663, "lat": 1.31327, "kind": "Primary", "poly": [[[103.75611, 1.31321], [103.75681, 1.31213], [103.75781, 1.3124], [103.75696, 1.31375], [103.75611, 1.31321]]]}, {"name": "Qihua Primary School", "lng": 103.78834, "lat": 1.44204, "kind": "Primary", "poly": [[[103.78722, 1.44178], [103.78866, 1.44274], [103.78901, 1.44219], [103.78911, 1.44174], [103.78913, 1.4414], [103.78878, 1.4414], [103.78854, 1.4416], [103.7884, 1.44161], [103.78838, 1.44167], [103.78813, 1.44168], [103.78809, 1.44163], [103.78761, 1.4416], [103.78742, 1.44162], [103.78732, 1.44171], [103.78727, 1.4417], [103.78722, 1.44178]]]}, {"name": "Queenstown Primary School", "lng": 103.80765, "lat": 1.29553, "kind": "Primary", "poly": [[[103.80733, 1.29646], [103.8072, 1.29563], [103.80764, 1.29539], [103.80831, 1.29528], [103.80851, 1.29667], [103.80804, 1.29684], [103.8079, 1.2968], [103.80772, 1.2969], [103.80764, 1.29642], [103.80733, 1.29646]]]}, {"name": "Queenstown Secondary School", "lng": 103.81319, "lat": 1.29352, "kind": "Secondary", "poly": [[[103.81409, 1.29312], [103.8134, 1.29323], [103.81319, 1.29318], [103.8131, 1.29303], [103.81297, 1.29218], [103.81291, 1.29213], [103.81224, 1.29225], [103.81257, 1.29441], [103.81344, 1.29426], [103.8137, 1.29409], [103.81417, 1.29366], [103.81409, 1.29312]]]}, {"name": "Queensway Secondary School", "lng": 103.80221, "lat": 1.30022, "kind": "Secondary", "poly": [[[103.80173, 1.30122], [103.80298, 1.30002], [103.80234, 1.29929], [103.80135, 1.30013], [103.80125, 1.3004], [103.80142, 1.30134], [103.80173, 1.30122]]]}, {"name": "Radin Mas Primary School", "lng": 103.82412, "lat": 1.2749, "kind": "Primary", "poly": [[[103.82332, 1.27575], [103.82442, 1.27557], [103.82445, 1.27519], [103.82491, 1.275], [103.8251, 1.27516], [103.82533, 1.27509], [103.8253, 1.27453], [103.82515, 1.27451], [103.82513, 1.2743], [103.82323, 1.27478], [103.82326, 1.27545], [103.82332, 1.27575]]]}, {"name": "Raffles Girls' Primary School", "lng": 103.8064, "lat": 1.33004, "kind": "Primary", "poly": [[[103.80549, 1.32995], [103.80544, 1.32986], [103.80674, 1.32907], [103.80711, 1.32952], [103.80701, 1.33002], [103.80704, 1.33024], [103.80688, 1.33065], [103.80647, 1.33106], [103.80549, 1.32995]], [[103.80647, 1.33106], [103.80555, 1.33103], [103.80549, 1.32995], [103.80647, 1.33106]]]}, {"name": "Raffles Girls' School (secondary)", "lng": 103.84313, "lat": 1.34217, "kind": "Secondary", "poly": [[[103.84344, 1.34172], [103.84244, 1.34174], [103.84202, 1.34351], [103.8419, 1.34421], [103.84204, 1.34444], [103.84447, 1.34312], [103.84446, 1.34248], [103.84437, 1.34209], [103.84412, 1.34171], [103.84344, 1.34172]]]}, {"name": "Raffles Institution", "lng": 103.84362, "lat": 1.34629, "kind": "Secondary & JC", "poly": [[[103.84011, 1.34486], [103.84008, 1.34501], [103.84014, 1.34588], [103.84031, 1.34631], [103.84058, 1.34757], [103.8413, 1.34686], [103.84172, 1.34671], [103.84223, 1.34674], [103.84255, 1.3468], [103.84385, 1.34766], [103.84541, 1.34831], [103.84644, 1.34863], [103.84703, 1.34847], [103.84651, 1.34611], [103.84643, 1.34539], [103.84521, 1.34533], [103.84519, 1.34608], [103.84298, 1.34605], [103.8426, 1.34582], [103.84236, 1.34536], [103.84121, 1.3453], [103.84011, 1.34486]]]}, {"name": "Red Swastika School", "lng": 103.93432, "lat": 1.33406, "kind": "Primary", "poly": [[[103.93395, 1.33416], [103.93417, 1.33419], [103.93424, 1.33429], [103.93505, 1.33437], [103.93531, 1.33312], [103.93416, 1.33289], [103.93395, 1.33416]]]}, {"name": "Regent Secondary School", "lng": 103.75103, "lat": 1.39328, "kind": "Secondary", "poly": [[[103.75201, 1.39343], [103.75188, 1.39313], [103.75164, 1.39293], [103.75014, 1.39264], [103.74994, 1.39393], [103.75193, 1.39424], [103.75191, 1.39395], [103.75201, 1.39343]]]}, {"name": "River Valley High School", "lng": 103.70819, "lat": 1.3446, "kind": "Secondary & JC", "poly": [[[103.70778, 1.34368], [103.70902, 1.34186], [103.71097, 1.34259], [103.71083, 1.34307], [103.70935, 1.34524], [103.70916, 1.34528], [103.70805, 1.34451], [103.70822, 1.34425], [103.70799, 1.34409], [103.70812, 1.34391], [103.70778, 1.34368]]]}, {"name": "River Valley Primary School", "lng": 103.83582, "lat": 1.29422, "kind": "Primary", "poly": [[[103.83546, 1.29508], [103.83548, 1.2952], [103.83633, 1.29509], [103.8362, 1.29449], [103.83665, 1.2938], [103.8368, 1.29361], [103.83685, 1.29366], [103.83682, 1.29344], [103.83676, 1.29338], [103.83601, 1.29336], [103.83581, 1.29341], [103.83554, 1.2942], [103.83554, 1.2944], [103.83559, 1.29443], [103.8354, 1.29504], [103.83546, 1.29508]]]}, {"name": "Riverside Primary School", "lng": 103.80189, "lat": 1.447, "kind": "Primary", "poly": [[[103.801, 1.44758], [103.80217, 1.4481], [103.80267, 1.44698], [103.80248, 1.44696], [103.80155, 1.44657], [103.80141, 1.44661], [103.801, 1.44758]]]}, {"name": "Riverside Secondary School", "lng": 103.78831, "lat": 1.4411, "kind": "Secondary", "poly": [[[103.78868, 1.44015], [103.78914, 1.44103], [103.78913, 1.4414], [103.78878, 1.4414], [103.78854, 1.4416], [103.7884, 1.44161], [103.78838, 1.44167], [103.78813, 1.44168], [103.78809, 1.44163], [103.78761, 1.4416], [103.78742, 1.44162], [103.78732, 1.44171], [103.78727, 1.4417], [103.78722, 1.44178], [103.78697, 1.44157], [103.78702, 1.44107], [103.78868, 1.44015]]]}, {"name": "Rivervale Primary School", "lng": 103.90455, "lat": 1.39334, "kind": "Primary", "poly": [[[103.9037, 1.39339], [103.90435, 1.39449], [103.90535, 1.39389], [103.90469, 1.39277], [103.9037, 1.39339]]]}, {"name": "Rosyth School", "lng": 103.87477, "lat": 1.37286, "kind": "Primary", "poly": [[[103.87367, 1.37344], [103.87376, 1.3732], [103.87374, 1.37267], [103.87388, 1.37241], [103.87411, 1.37233], [103.87494, 1.37229], [103.8751, 1.37235], [103.87522, 1.37248], [103.87527, 1.37264], [103.87528, 1.37284], [103.87523, 1.37296], [103.8753, 1.3733], [103.87527, 1.37336], [103.87367, 1.37344]]]}, {"name": "Rulang Primary School", "lng": 103.71846, "lat": 1.34674, "kind": "Primary", "poly": [[[103.71783, 1.34735], [103.71933, 1.34735], [103.71934, 1.34608], [103.71895, 1.34608], [103.71857, 1.3462], [103.71824, 1.34646], [103.71803, 1.34676], [103.71783, 1.34735]]]}, {"name": "School Of Science And Technology, Singapore", "lng": 103.77401, "lat": 1.31293, "kind": "Secondary", "poly": [[[103.77245, 1.31356], [103.77258, 1.31253], [103.77272, 1.31247], [103.77307, 1.31246], [103.77428, 1.31259], [103.77457, 1.31266], [103.77462, 1.31271], [103.77451, 1.31371], [103.77441, 1.31378], [103.77245, 1.31356]]]}, {"name": "School Of The Arts, Singapore", "lng": 103.84867, "lat": 1.29935, "kind": "Secondary & JC"}, {"name": "Sembawang Primary School", "lng": 103.82102, "lat": 1.44505, "kind": "Primary", "poly": [[[103.82008, 1.44549], [103.82133, 1.44603], [103.82175, 1.44504], [103.8205, 1.44451], [103.82008, 1.44549]]]}, {"name": "Sembawang Secondary School", "lng": 103.81684, "lat": 1.44532, "kind": "Secondary", "poly": [[[103.81619, 1.44668], [103.81774, 1.44596], [103.81711, 1.44465], [103.8156, 1.44535], [103.81619, 1.44668]]]}, {"name": "Seng Kang Primary School", "lng": 103.89953, "lat": 1.38925, "kind": "Primary", "poly": [[[103.8986, 1.38941], [103.89852, 1.38938], [103.89883, 1.38899], [103.89977, 1.38866], [103.90017, 1.38984], [103.89945, 1.39009], [103.89926, 1.3901], [103.89907, 1.38999], [103.89872, 1.38949], [103.8986, 1.38941]]]}, {"name": "Seng Kang Secondary School", "lng": 103.89837, "lat": 1.3866, "kind": "Secondary", "poly": [[[103.89791, 1.38575], [103.89769, 1.38626], [103.89806, 1.38737], [103.89966, 1.38685], [103.89968, 1.3867], [103.89946, 1.38604], [103.89929, 1.3857], [103.89918, 1.38563], [103.89887, 1.3856], [103.89825, 1.38581], [103.89791, 1.38575]]]}, {"name": "Sengkang Green Primary School", "lng": 103.87516, "lat": 1.39284, "kind": "Primary", "poly": [[[103.87568, 1.39325], [103.87556, 1.39233], [103.874, 1.39249], [103.87409, 1.3934], [103.87568, 1.39325]]]}, {"name": "Serangoon Garden Secondary School", "lng": 103.86927, "lat": 1.36933, "kind": "Secondary", "poly": [[[103.86829, 1.36893], [103.86833, 1.37009], [103.86884, 1.37104], [103.86956, 1.37105], [103.86955, 1.37027], [103.86972, 1.36924], [103.86829, 1.36893]]]}, {"name": "Serangoon Secondary School", "lng": 103.90214, "lat": 1.37466, "kind": "Secondary", "poly": [[[103.90098, 1.37493], [103.90098, 1.37485], [103.90174, 1.37402], [103.90185, 1.37394], [103.9021, 1.37391], [103.90223, 1.37395], [103.90239, 1.37408], [103.90308, 1.37499], [103.9021, 1.37601], [103.90131, 1.3752], [103.90098, 1.37493]]]}, {"name": "Shuqun Primary School", "lng": 103.72156, "lat": 1.34687, "kind": "Primary", "poly": [[[103.72075, 1.34777], [103.72091, 1.34787], [103.72198, 1.34787], [103.72198, 1.34729], [103.72204, 1.34729], [103.72205, 1.34697], [103.72157, 1.34697], [103.72157, 1.34655], [103.72149, 1.34651], [103.72075, 1.34777]]]}, {"name": "Si Ling Primary School", "lng": 103.78578, "lat": 1.4327, "kind": "Primary", "poly": [[[103.78514, 1.43353], [103.78561, 1.43177], [103.78639, 1.43198], [103.78592, 1.43374], [103.78514, 1.43353]]]}, {"name": "Singapore Chinese Girls' Primary School", "lng": 103.82816, "lat": 1.32063, "kind": "Primary", "poly": [[[103.82584, 1.32116], [103.82633, 1.32098], [103.82632, 1.32093], [103.82874, 1.32016], [103.82933, 1.32185], [103.82885, 1.32201], [103.82844, 1.32205], [103.82706, 1.3216], [103.82638, 1.32159], [103.82596, 1.3217], [103.82584, 1.32116]]]}, {"name": "Singapore Chinese Girls' School", "lng": 103.82816, "lat": 1.32063, "kind": "Secondary", "poly": [[[103.82584, 1.32116], [103.82633, 1.32098], [103.82632, 1.32093], [103.82874, 1.32016], [103.82933, 1.32185], [103.82885, 1.32201], [103.82844, 1.32205], [103.82706, 1.3216], [103.82638, 1.32159], [103.82596, 1.3217], [103.82584, 1.32116]]]}, {"name": "Singapore Sports School", "lng": 103.78944, "lat": 1.42641, "kind": "Secondary & JC", "poly": [[[103.78719, 1.42908], [103.78833, 1.42883], [103.78822, 1.4278], [103.78833, 1.42749], [103.78857, 1.42728], [103.78964, 1.4268], [103.78988, 1.42675], [103.79014, 1.42682], [103.79052, 1.42716], [103.79062, 1.42718], [103.79108, 1.42677], [103.79064, 1.42625], [103.79034, 1.42557], [103.78711, 1.42686], [103.78693, 1.42706], [103.78686, 1.4272], [103.78684, 1.42746], [103.78719, 1.42908]]]}, {"name": "South View Primary School", "lng": 103.74715, "lat": 1.38143, "kind": "Primary", "poly": [[[103.74625, 1.38241], [103.74588, 1.38159], [103.74734, 1.38093], [103.7477, 1.38175], [103.74625, 1.38241]]]}, {"name": "Spectra Secondary School", "lng": 103.8041, "lat": 1.43704, "kind": "Secondary", "poly": [[[103.80339, 1.43613], [103.80396, 1.43571], [103.80414, 1.43568], [103.80448, 1.43574], [103.80473, 1.43593], [103.8053, 1.43696], [103.80467, 1.43732], [103.80372, 1.43732], [103.80369, 1.43675], [103.80351, 1.43629], [103.80339, 1.43613]]]}, {"name": "Springdale Primary School", "lng": 103.88942, "lat": 1.39529, "kind": "Primary", "poly": [[[103.8906, 1.39537], [103.89049, 1.39458], [103.89039, 1.39447], [103.88896, 1.39456], [103.88905, 1.39552], [103.8906, 1.39537]]]}, {"name": "Springfield Secondary School", "lng": 103.93035, "lat": 1.34957, "kind": "Secondary", "poly": [[[103.93026, 1.34903], [103.93086, 1.35033], [103.93042, 1.35057], [103.93077, 1.35122], [103.93023, 1.3515], [103.93008, 1.35148], [103.92908, 1.34965], [103.93026, 1.34903]]]}, {"name": "St Andrew's Junior College", "lng": 103.86358, "lat": 1.33307, "kind": "Junior College"}, {"name": "St Andrew's School (junior)", "lng": 103.86512, "lat": 1.3314, "kind": "Primary", "poly": [[[103.86574, 1.33178], [103.86539, 1.33112], [103.86562, 1.33101], [103.86544, 1.33068], [103.86445, 1.3312], [103.86497, 1.33218], [103.86574, 1.33178]]]}, {"name": "St Andrew's School (secondary)", "lng": 103.86625, "lat": 1.33069, "kind": "Secondary", "poly": [[[103.86574, 1.33178], [103.86539, 1.33112], [103.86562, 1.33101], [103.86544, 1.33068], [103.86573, 1.33052], [103.86663, 1.33044], [103.86685, 1.3311], [103.86574, 1.33178]]]}, {"name": "St. Anthony's Canossian Primary School", "lng": 103.94123, "lat": 1.33473, "kind": "Primary", "poly": [[[103.94148, 1.3342], [103.94055, 1.33398], [103.94026, 1.33567], [103.94044, 1.33582], [103.94121, 1.33567], [103.94148, 1.3342]]]}, {"name": "St. Anthony's Canossian Secondary School", "lng": 103.94198, "lat": 1.33466, "kind": "Secondary", "poly": [[[103.94148, 1.3342], [103.94121, 1.33567], [103.94345, 1.33521], [103.94337, 1.33489], [103.94325, 1.33472], [103.94307, 1.33459], [103.94148, 1.3342]]]}, {"name": "St. Anthony's Primary School", "lng": 103.74925, "lat": 1.36412, "kind": "Primary", "poly": [[[103.74955, 1.3652], [103.74884, 1.36515], [103.7489, 1.3638], [103.74965, 1.36382], [103.74955, 1.3652]]]}, {"name": "St. Gabriel's Primary School", "lng": 103.86231, "lat": 1.34931, "kind": "Primary", "poly": [[[103.86143, 1.34995], [103.86174, 1.34887], [103.86177, 1.34882], [103.8621, 1.34871], [103.86294, 1.34942], [103.863, 1.34955], [103.86186, 1.35045], [103.86143, 1.34995]]]}, {"name": "St. Gabriel's Secondary School", "lng": 103.87609, "lat": 1.34649, "kind": "Secondary", "poly": [[[103.87668, 1.34746], [103.87668, 1.34692], [103.87638, 1.34679], [103.87642, 1.3464], [103.87542, 1.34602], [103.87516, 1.34614], [103.87448, 1.34624], [103.87455, 1.34671], [103.87443, 1.34675], [103.87443, 1.34744], [103.87668, 1.34746]]]}, {"name": "St. Hilda's Primary School", "lng": 103.93702, "lat": 1.34968, "kind": "Primary", "poly": [[[103.93596, 1.34988], [103.93687, 1.34951], [103.9369, 1.34958], [103.93727, 1.34943], [103.93744, 1.34944], [103.93746, 1.34923], [103.93803, 1.34929], [103.93792, 1.35029], [103.93642, 1.35092], [103.93596, 1.34988]]]}, {"name": "St. Hilda's Secondary School", "lng": 103.93761, "lat": 1.34974, "kind": "Secondary", "poly": [[[103.93596, 1.34988], [103.93687, 1.34951], [103.9369, 1.34958], [103.93727, 1.34943], [103.93744, 1.34944], [103.93746, 1.34923], [103.93803, 1.34929], [103.93792, 1.35029], [103.93642, 1.35092], [103.93596, 1.34988]]]}, {"name": "St. Joseph's Institution", "lng": 103.8285, "lat": 1.32365, "kind": "Secondary & JC", "poly": [[[103.82773, 1.32559], [103.82861, 1.32473], [103.82891, 1.32451], [103.82922, 1.32435], [103.82936, 1.32442], [103.82949, 1.32438], [103.82958, 1.32445], [103.82975, 1.32433], [103.82942, 1.32386], [103.82912, 1.32366], [103.82887, 1.32299], [103.82872, 1.3228], [103.82849, 1.32267], [103.82828, 1.32267], [103.82759, 1.3235], [103.82692, 1.32407], [103.82773, 1.32559]]]}, {"name": "St. Joseph's Institution Junior", "lng": 103.84563, "lat": 1.31781, "kind": "Primary", "poly": [[[103.84539, 1.31826], [103.84531, 1.31769], [103.84539, 1.31727], [103.84572, 1.31665], [103.84641, 1.3169], [103.84731, 1.31739], [103.84728, 1.31763], [103.84683, 1.31779], [103.84587, 1.31828], [103.84572, 1.31824], [103.84539, 1.31826]]]}, {"name": "St. Margaret's School (primary)", "lng": 103.84582, "lat": 1.30414, "kind": "Primary", "poly": [[[103.84636, 1.30392], [103.84678, 1.30355], [103.84651, 1.3032], [103.84606, 1.30357], [103.84587, 1.30336], [103.8455, 1.30391], [103.84549, 1.30398], [103.84591, 1.30467], [103.846, 1.30466], [103.84636, 1.30392]]]}, {"name": "St. Margaret's School (secondary)", "lng": 103.80995, "lat": 1.32007, "kind": "Secondary", "poly": [[[103.80964, 1.32082], [103.81006, 1.32045], [103.81014, 1.32055], [103.81017, 1.32051], [103.81049, 1.32086], [103.81059, 1.32086], [103.81079, 1.32107], [103.81146, 1.32045], [103.81129, 1.32025], [103.81081, 1.31993], [103.8094, 1.31925], [103.80876, 1.31983], [103.80964, 1.32082]]]}, {"name": "St. Patrick's School", "lng": 103.91764, "lat": 1.30788, "kind": "Secondary", "poly": [[[103.91562, 1.30955], [103.91713, 1.30985], [103.91719, 1.30964], [103.91728, 1.30966], [103.9181, 1.30768], [103.91714, 1.30744], [103.91712, 1.30752], [103.91659, 1.30739], [103.91562, 1.30955]]]}, {"name": "St. Stephen's School", "lng": 103.91726, "lat": 1.31879, "kind": "Primary", "poly": [[[103.91679, 1.31901], [103.91674, 1.31864], [103.91859, 1.31786], [103.91869, 1.31788], [103.9192, 1.31876], [103.91919, 1.31885], [103.91806, 1.31937], [103.9177, 1.31934], [103.91679, 1.31901]]]}, {"name": "Swiss Cottage Secondary School", "lng": 103.7504, "lat": 1.36472, "kind": "Secondary", "poly": [[[103.74955, 1.3652], [103.74965, 1.36382], [103.75129, 1.36392], [103.75125, 1.36524], [103.75109, 1.36533], [103.74955, 1.3652]]]}, {"name": "Tampines Meridian Junior College", "lng": 103.93699, "lat": 1.37633, "kind": "Junior College"}, {"name": "Tampines North Primary School", "lng": 103.94877, "lat": 1.36049, "kind": "Primary", "poly": [[[103.94832, 1.36096], [103.94924, 1.36144], [103.94981, 1.36087], [103.94981, 1.36004], [103.94943, 1.35997], [103.94916, 1.35998], [103.94832, 1.36024], [103.94832, 1.36096]]]}, {"name": "Tampines Primary School", "lng": 103.94357, "lat": 1.35049, "kind": "Primary", "poly": [[[103.94497, 1.34997], [103.94451, 1.35067], [103.94307, 1.35066], [103.94306, 1.34994], [103.94497, 1.34997]]]}, {"name": "Tampines Secondary School", "lng": 103.94426, "lat": 1.34926, "kind": "Secondary", "poly": [[[103.94306, 1.34994], [103.94301, 1.34901], [103.94534, 1.34898], [103.94497, 1.34997], [103.94306, 1.34994]]]}, {"name": "Tanjong Katong Girls' School", "lng": 103.89611, "lat": 1.30756, "kind": "Secondary", "poly": [[[103.89532, 1.30852], [103.89626, 1.30891], [103.89627, 1.30921], [103.89674, 1.30811], [103.89711, 1.30828], [103.89753, 1.30735], [103.89616, 1.3067], [103.89572, 1.30784], [103.89532, 1.30852]]]}, {"name": "Tanjong Katong Primary School", "lng": 103.90016, "lat": 1.30526, "kind": "Primary", "poly": [[[103.89954, 1.30541], [103.90097, 1.30604], [103.90137, 1.30523], [103.89989, 1.30463], [103.89954, 1.30541]]]}, {"name": "Tanjong Katong Secondary School", "lng": 103.89723, "lat": 1.30874, "kind": "Secondary", "poly": [[[103.8963, 1.3094], [103.89627, 1.30921], [103.89674, 1.30811], [103.89711, 1.30828], [103.89753, 1.30735], [103.89842, 1.30775], [103.89775, 1.30934], [103.8963, 1.3094]]]}, {"name": "Tao Nan School", "lng": 103.91155, "lat": 1.30529, "kind": "Primary", "poly": [[[103.91032, 1.30541], [103.91186, 1.30582], [103.91179, 1.30436], [103.91063, 1.30444], [103.91032, 1.30541]]]}, {"name": "Teck Ghee Primary School", "lng": 103.85096, "lat": 1.36559, "kind": "Primary", "poly": [[[103.85023, 1.36579], [103.85025, 1.36494], [103.8502, 1.36473], [103.85051, 1.36459], [103.85092, 1.36483], [103.851, 1.36482], [103.85133, 1.36434], [103.85203, 1.36471], [103.85126, 1.366], [103.85114, 1.36602], [103.85065, 1.36581], [103.85023, 1.36579]]]}, {"name": "Teck Whye Primary School", "lng": 103.75329, "lat": 1.38365, "kind": "Primary", "poly": [[[103.75291, 1.3846], [103.7528, 1.38439], [103.75292, 1.38392], [103.75292, 1.38353], [103.75436, 1.38304], [103.75451, 1.38329], [103.75456, 1.38357], [103.75433, 1.38393], [103.75433, 1.38408], [103.75385, 1.38436], [103.75291, 1.3846]]]}, {"name": "Telok Kurau Primary School", "lng": 103.91101, "lat": 1.3311, "kind": "Primary", "poly": [[[103.91146, 1.33178], [103.91054, 1.33151], [103.91055, 1.3313], [103.91113, 1.33], [103.9121, 1.33046], [103.91146, 1.33178]]]}, {"name": "Temasek Junior College", "lng": 103.95619, "lat": 1.35728, "kind": "Secondary & JC"}, {"name": "Temasek Primary School", "lng": 103.94559, "lat": 1.31771, "kind": "Primary", "poly": [[[103.94504, 1.318], [103.94604, 1.3183], [103.94648, 1.31682], [103.94576, 1.31663], [103.94558, 1.31666], [103.94544, 1.31675], [103.94504, 1.318]]]}, {"name": "Temasek Secondary School", "lng": 103.94756, "lat": 1.31592, "kind": "Secondary", "poly": [[[103.94619, 1.31603], [103.94721, 1.31651], [103.94711, 1.31677], [103.94786, 1.31696], [103.94826, 1.31711], [103.94835, 1.31708], [103.94851, 1.3169], [103.94879, 1.3162], [103.94647, 1.31529], [103.94619, 1.31603]]]}, {"name": "Townsville Primary School", "lng": 103.85377, "lat": 1.35995, "kind": "Primary", "poly": [[[103.85453, 1.36013], [103.85356, 1.35948], [103.85304, 1.36006], [103.85374, 1.36099], [103.85382, 1.36101], [103.85482, 1.36063], [103.85468, 1.36024], [103.8546, 1.3602], [103.85543, 1.35989], [103.85539, 1.35981], [103.85453, 1.36013]]]}, {"name": "Unity Primary School", "lng": 103.74682, "lat": 1.40285, "kind": "Primary", "poly": [[[103.74749, 1.4034], [103.74725, 1.40214], [103.74601, 1.40237], [103.74618, 1.40313], [103.74632, 1.40334], [103.74645, 1.40344], [103.74668, 1.40354], [103.74693, 1.40355], [103.74749, 1.4034]]]}, {"name": "Unity Secondary School", "lng": 103.74602, "lat": 1.40002, "kind": "Secondary", "poly": [[[103.7453, 1.401], [103.74501, 1.3994], [103.74531, 1.399], [103.74555, 1.39914], [103.74586, 1.39918], [103.7468, 1.39894], [103.747, 1.40002], [103.7459, 1.40023], [103.74602, 1.40086], [103.7453, 1.401]]]}, {"name": "Valour Primary School", "lng": 103.89876, "lat": 1.40744, "kind": "Primary", "poly": [[[103.89844, 1.40771], [103.89822, 1.40731], [103.89805, 1.40683], [103.8981, 1.40666], [103.89821, 1.40661], [103.89963, 1.40657], [103.89981, 1.40712], [103.89879, 1.4077], [103.89844, 1.40771]]]}, {"name": "Victoria Junior College", "lng": 103.91998, "lat": 1.3067, "kind": "Junior College"}, {"name": "Victoria School", "lng": 103.92798, "lat": 1.30871, "kind": "Secondary"}, {"name": "Waterway Primary School", "lng": 103.91859, "lat": 1.39889, "kind": "Primary", "poly": [[[103.91865, 1.3985], [103.91852, 1.39847], [103.91751, 1.39917], [103.91819, 1.4001], [103.91923, 1.39932], [103.91865, 1.3985]]]}, {"name": "Wellington Primary School", "lng": 103.8223, "lat": 1.45192, "kind": "Primary", "poly": [[[103.82165, 1.45253], [103.82275, 1.45295], [103.82318, 1.45173], [103.82211, 1.45134], [103.82165, 1.45253]]]}, {"name": "West Grove Primary School", "lng": 103.69896, "lat": 1.34471, "kind": "Primary", "poly": [[[103.69915, 1.34557], [103.6981, 1.34478], [103.69884, 1.34384], [103.69978, 1.34462], [103.69979, 1.34474], [103.69915, 1.34557]]]}, {"name": "West Spring Primary School", "lng": 103.7664, "lat": 1.38918, "kind": "Primary", "poly": [[[103.76573, 1.3901], [103.7668, 1.3901], [103.7668, 1.38895], [103.76675, 1.38889], [103.76631, 1.38874], [103.766, 1.38851], [103.76573, 1.38872], [103.76573, 1.3901]]]}, {"name": "West Spring Secondary School", "lng": 103.76013, "lat": 1.38782, "kind": "Secondary", "poly": [[[103.75896, 1.38861], [103.75949, 1.38731], [103.75969, 1.38733], [103.76049, 1.38712], [103.76078, 1.38796], [103.76033, 1.38914], [103.75896, 1.38861]]]}, {"name": "West View Primary School", "lng": 103.76024, "lat": 1.38368, "kind": "Primary", "poly": [[[103.75921, 1.38366], [103.7592, 1.38376], [103.76029, 1.38437], [103.76038, 1.38435], [103.76052, 1.38411], [103.76081, 1.38333], [103.75981, 1.38278], [103.75921, 1.38366]]]}, {"name": "Westwood Primary School", "lng": 103.70053, "lat": 1.34715, "kind": "Primary", "poly": [[[103.70007, 1.34798], [103.69992, 1.34698], [103.70034, 1.34639], [103.70129, 1.34708], [103.70069, 1.34789], [103.70007, 1.34798]]]}, {"name": "Westwood Secondary School", "lng": 103.70177, "lat": 1.35374, "kind": "Secondary", "poly": [[[103.70076, 1.35329], [103.70074, 1.3534], [103.70185, 1.35481], [103.70282, 1.35394], [103.70178, 1.3525], [103.70118, 1.35292], [103.70076, 1.35329]]]}, {"name": "White Sands Primary School", "lng": 103.96092, "lat": 1.36556, "kind": "Primary", "poly": [[[103.96108, 1.36642], [103.9604, 1.36573], [103.9604, 1.36552], [103.96139, 1.36453], [103.96213, 1.36535], [103.96211, 1.36543], [103.96108, 1.36642]]]}, {"name": "Whitley Secondary School", "lng": 103.84255, "lat": 1.35505, "kind": "Secondary", "poly": [[[103.84177, 1.35642], [103.8424, 1.35646], [103.84299, 1.35592], [103.84304, 1.35598], [103.84333, 1.35586], [103.84365, 1.35557], [103.84364, 1.3555], [103.84374, 1.35541], [103.84342, 1.35505], [103.84321, 1.35453], [103.84207, 1.355], [103.84154, 1.35512], [103.84168, 1.35562], [103.84177, 1.35642]]]}, {"name": "Woodgrove Primary School", "lng": 103.79023, "lat": 1.43274, "kind": "Primary", "poly": [[[103.7896, 1.4323], [103.78991, 1.43349], [103.79005, 1.43372], [103.79019, 1.43381], [103.79037, 1.43384], [103.7909, 1.4337], [103.79073, 1.43271], [103.79042, 1.43273], [103.79027, 1.43196], [103.78966, 1.43223], [103.7896, 1.4323]]]}, {"name": "Woodgrove Secondary School", "lng": 103.79605, "lat": 1.42832, "kind": "Secondary", "poly": [[[103.79594, 1.42943], [103.79573, 1.42878], [103.79573, 1.42763], [103.79676, 1.42781], [103.79727, 1.42795], [103.79733, 1.42807], [103.79741, 1.42859], [103.79758, 1.42909], [103.79594, 1.42943]]]}, {"name": "Woodlands Primary School", "lng": 103.79179, "lat": 1.43658, "kind": "Primary", "poly": [[[103.79232, 1.43746], [103.7924, 1.43632], [103.79104, 1.43625], [103.79097, 1.43707], [103.79114, 1.43731], [103.79129, 1.43738], [103.79232, 1.43746]]]}, {"name": "Woodlands Ring Primary School", "lng": 103.79741, "lat": 1.43485, "kind": "Primary", "poly": [[[103.7971, 1.43339], [103.79721, 1.43508], [103.79761, 1.43533], [103.79789, 1.4351], [103.79852, 1.43506], [103.79848, 1.43425], [103.7977, 1.43427], [103.79766, 1.4333], [103.7971, 1.43339]]]}, {"name": "Woodlands Ring Secondary School", "lng": 103.77763, "lat": 1.4307, "kind": "Secondary", "poly": [[[103.77677, 1.43128], [103.77784, 1.43129], [103.77784, 1.42926], [103.77705, 1.42926], [103.77705, 1.43003], [103.77674, 1.43017], [103.77677, 1.43128]]]}, {"name": "Woodlands Secondary School", "lng": 103.77459, "lat": 1.43913, "kind": "Secondary", "poly": [[[103.77383, 1.44101], [103.77391, 1.43871], [103.77491, 1.43873], [103.77486, 1.44052], [103.7752, 1.44078], [103.77476, 1.44137], [103.7743, 1.44113], [103.77383, 1.44101]]]}, {"name": "Xinghua Primary School", "lng": 103.89022, "lat": 1.358, "kind": "Primary", "poly": [[[103.88955, 1.35824], [103.89105, 1.35886], [103.89125, 1.35887], [103.89144, 1.35772], [103.89096, 1.35764], [103.89093, 1.35776], [103.89033, 1.35769], [103.88982, 1.35749], [103.88955, 1.35824]]]}, {"name": "Xingnan Primary School", "lng": 103.68795, "lat": 1.34255, "kind": "Primary", "poly": [[[103.68822, 1.34352], [103.68799, 1.34381], [103.68656, 1.34272], [103.68822, 1.34352]], [[103.68656, 1.34272], [103.68704, 1.34209], [103.6873, 1.34225], [103.68807, 1.34216], [103.68822, 1.34352], [103.68656, 1.34272]]]}, {"name": "Xinmin Primary School", "lng": 103.88281, "lat": 1.37177, "kind": "Primary", "poly": [[[103.88236, 1.37309], [103.88382, 1.37276], [103.88338, 1.37082], [103.8819, 1.37116], [103.88236, 1.37309]]]}, {"name": "Xinmin Secondary School", "lng": 103.88305, "lat": 1.37256, "kind": "Secondary", "poly": [[[103.88236, 1.37309], [103.88382, 1.37276], [103.88338, 1.37082], [103.8819, 1.37116], [103.88236, 1.37309]]]}, {"name": "Xishan Primary School", "lng": 103.83776, "lat": 1.43347, "kind": "Primary", "poly": [[[103.83877, 1.43323], [103.83875, 1.43362], [103.83804, 1.43418], [103.83675, 1.43376], [103.8369, 1.43303], [103.83791, 1.43303], [103.83792, 1.43324], [103.83877, 1.43323]]]}, {"name": "Yangzheng Primary School", "lng": 103.8686, "lat": 1.34865, "kind": "Primary", "poly": [[[103.8689, 1.34951], [103.86874, 1.34942], [103.8678, 1.34919], [103.86798, 1.34831], [103.86867, 1.34783], [103.86904, 1.34835], [103.86891, 1.34846], [103.86888, 1.34863], [103.86905, 1.3489], [103.8689, 1.34951]]]}, {"name": "Yew Tee Primary School", "lng": 103.75182, "lat": 1.39673, "kind": "Primary", "poly": [[[103.75018, 1.39729], [103.75026, 1.39659], [103.75033, 1.3965], [103.75117, 1.39657], [103.75149, 1.39648], [103.75018, 1.39729]], [[103.75149, 1.39648], [103.75155, 1.39658], [103.75201, 1.39662], [103.75149, 1.39648]]]}, {"name": "Yio Chu Kang Primary School", "lng": 103.88564, "lat": 1.37793, "kind": "Primary", "poly": [[[103.88472, 1.37836], [103.88617, 1.37839], [103.88621, 1.37731], [103.8849, 1.37731], [103.88475, 1.37747], [103.88472, 1.37836]]]}, {"name": "Yio Chu Kang Secondary School", "lng": 103.84214, "lat": 1.37798, "kind": "Secondary", "poly": [[[103.843, 1.37904], [103.84113, 1.37887], [103.84126, 1.37742], [103.84235, 1.37752], [103.84231, 1.37801], [103.84309, 1.37809], [103.843, 1.37904]]]}, {"name": "Yishun Innova Junior College", "lng": 103.83003, "lat": 1.42427, "kind": "Junior College"}, {"name": "Yishun Primary School", "lng": 103.83405, "lat": 1.43398, "kind": "Primary", "poly": [[[103.83329, 1.4342], [103.83428, 1.43448], [103.83462, 1.433], [103.83329, 1.43297], [103.83329, 1.4342]]]}, {"name": "Yishun Secondary School", "lng": 103.82876, "lat": 1.42813, "kind": "Secondary", "poly": [[[103.82955, 1.42869], [103.82964, 1.42726], [103.8285, 1.42719], [103.82842, 1.42862], [103.82955, 1.42869]]]}, {"name": "Yishun Town Secondary School", "lng": 103.83809, "lat": 1.43232, "kind": "Secondary", "poly": [[[103.83884, 1.43202], [103.83877, 1.43323], [103.83792, 1.43324], [103.83791, 1.43303], [103.8369, 1.43303], [103.83703, 1.4323], [103.83725, 1.4321], [103.83884, 1.43202]]]}, {"name": "Yu Neng Primary School", "lng": 103.93202, "lat": 1.33398, "kind": "Primary", "poly": [[[103.93327, 1.33444], [103.93318, 1.33491], [103.93344, 1.33476], [103.93364, 1.33387], [103.93309, 1.33376], [103.9331, 1.33371], [103.93161, 1.33342], [103.93151, 1.33392], [103.93159, 1.33411], [103.93327, 1.33444]]]}, {"name": "Yuan Ching Secondary School", "lng": 103.7209, "lat": 1.34201, "kind": "Secondary", "poly": [[[103.71837, 1.34086], [103.72043, 1.3409], [103.72067, 1.34149], [103.72138, 1.3417], [103.7213, 1.34196], [103.72125, 1.34244], [103.72067, 1.34237], [103.71997, 1.34215], [103.71977, 1.34203], [103.71837, 1.34086]]]}, {"name": "Yuhua Primary School", "lng": 103.74086, "lat": 1.34292, "kind": "Primary", "poly": [[[103.74103, 1.34334], [103.74042, 1.34334], [103.74041, 1.34234], [103.7406, 1.34215], [103.7406, 1.34197], [103.74127, 1.34197], [103.74127, 1.34212], [103.7415, 1.34263], [103.7415, 1.34315], [103.74135, 1.34329], [103.74103, 1.34334]]]}, {"name": "Yuhua Secondary School", "lng": 103.72269, "lat": 1.34719, "kind": "Secondary", "poly": [[[103.72173, 1.34589], [103.72331, 1.34681], [103.7232, 1.3471], [103.72316, 1.34789], [103.72198, 1.34787], [103.72198, 1.34729], [103.72204, 1.34729], [103.72205, 1.34697], [103.72157, 1.34697], [103.72157, 1.34655], [103.72149, 1.34651], [103.72173, 1.34589]]]}, {"name": "Yumin Primary School", "lng": 103.95046, "lat": 1.35129, "kind": "Primary", "poly": [[[103.95123, 1.35184], [103.95166, 1.35112], [103.95137, 1.35103], [103.95135, 1.35109], [103.95062, 1.35084], [103.95054, 1.35105], [103.95023, 1.35094], [103.95014, 1.35153], [103.95067, 1.35168], [103.95114, 1.3519], [103.95123, 1.35184]]]}, {"name": "Yusof Ishak Secondary School", "lng": 103.89628, "lat": 1.40694, "kind": "Secondary", "poly": [[[103.89793, 1.40773], [103.89578, 1.40782], [103.89563, 1.40756], [103.89553, 1.40723], [103.8955, 1.40694], [103.89554, 1.40679], [103.89568, 1.40669], [103.89611, 1.40664], [103.89691, 1.40663], [103.8974, 1.40669], [103.89756, 1.40683], [103.89793, 1.40773]]]}, {"name": "Yuying Secondary School", "lng": 103.89019, "lat": 1.35714, "kind": "Secondary", "poly": [[[103.88982, 1.35749], [103.89033, 1.35769], [103.89093, 1.35776], [103.89096, 1.35764], [103.89144, 1.35772], [103.89159, 1.3567], [103.89157, 1.35661], [103.88997, 1.35661], [103.88982, 1.35749]]]}, {"name": "Zhangde Primary School", "lng": 103.82595, "lat": 1.28421, "kind": "Primary", "poly": [[[103.82542, 1.28489], [103.82701, 1.28437], [103.82663, 1.28365], [103.82518, 1.28413], [103.82542, 1.28489]]]}, {"name": "Zhenghua Primary School", "lng": 103.76931, "lat": 1.37955, "kind": "Primary", "poly": [[[103.76922, 1.38062], [103.76852, 1.38023], [103.76829, 1.37986], [103.77016, 1.37875], [103.7703, 1.37899], [103.77032, 1.37998], [103.77002, 1.37998], [103.76967, 1.3801], [103.76931, 1.38043], [103.76922, 1.38062]]]}, {"name": "Zhenghua Secondary School", "lng": 103.76551, "lat": 1.38837, "kind": "Secondary", "poly": [[[103.76461, 1.38824], [103.76509, 1.3878], [103.76531, 1.38774], [103.766, 1.38851], [103.76573, 1.38872], [103.76573, 1.3903], [103.76521, 1.39026], [103.76488, 1.39018], [103.76487, 1.39005], [103.76475, 1.39005], [103.76455, 1.38836], [103.76461, 1.38824]]]}, {"name": "Zhonghua Primary School", "lng": 103.86971, "lat": 1.36026, "kind": "Primary", "poly": [[[103.86965, 1.35959], [103.8695, 1.35948], [103.86907, 1.36013], [103.86991, 1.36073], [103.87077, 1.36032], [103.86965, 1.35959]]]}, {"name": "Zhonghua Secondary School", "lng": 103.86943, "lat": 1.34841, "kind": "Secondary", "poly": [[[103.86905, 1.3489], [103.8689, 1.34951], [103.86903, 1.34964], [103.86919, 1.34994], [103.87018, 1.34945], [103.87048, 1.34955], [103.87072, 1.34915], [103.86979, 1.3488], [103.86987, 1.34858], [103.86957, 1.34833], [103.86973, 1.34789], [103.86992, 1.34756], [103.86974, 1.34744], [103.86963, 1.34752], [103.86941, 1.34721], [103.86867, 1.34783], [103.86904, 1.34835], [103.86891, 1.34846], [103.86888, 1.34863], [103.86905, 1.3489]]]}]