[{"name":"Commit Learning Schoolhouse @ CHIJ (Kellock) - CLS Gaia Pte Ltd","lng":103.82795,"lat":1.27474},{"name":"Commit Learning Schoolhouse @ Dazhong Primary School - CLS West Pte Ltd","lng":103.74812,"lat":1.35906},{"name":"MWS Christalite Student Care Centre","lng":103.88497,"lat":1.31768},{"name":"Commit Learning Schoolhouse @ Fairfield Methodist School (Primary) - CLS Themis Pte Ltd","lng":103.78544,"lat":1.30054},{"name":"Hope Student Care Centre","lng":103.89543,"lat":1.37748},{"name":"Commit Learning Schoolhouse @ Woodgrove Primary School","lng":103.79023,"lat":1.43274},{"name":"Raffles Student Care (Teck Ghee) Pte Ltd","lng":103.85096,"lat":1.36559},{"name":"The Choice @ Knowledge Park Pte. Ltd (Bukit Panjang Branch)","lng":103.76988,"lat":1.38227},{"name":"Super Talent Student Care @ Sengkang","lng":103.87859,"lat":1.39668},{"name":"Allkin Student Academy @ Cheng San","lng":103.85559,"lat":1.36701},{"name":"Commit Learning Schoolhouse @ CHIJ (Our Lady Queen of Peace) - CLS Hera Pte Ltd","lng":103.76741,"lat":1.3666},{"name":"Commit Learning Schoolhouse @ Peiying Primary School - CLS Pallas Pte Ltd","lng":103.83014,"lat":1.41742},{"name":"LIFE SCC Ltd @ Pei Chun","lng":103.85513,"lat":1.33705},{"name":"Edulearn","lng":103.95715,"lat":1.3752},{"name":"Lakeside Student Care (Jurong East)","lng":103.73445,"lat":1.34463},{"name":"YMCA Student Care Centre @ Northshore","lng":103.90442,"lat":1.41814},{"name":"Nascans @ West Grove Student Care","lng":103.69896,"lat":1.34471},{"name":"YMCA Student Care Centre @ St Hilda's","lng":103.93679,"lat":1.34941},{"name":"Nascans Coulomb Pte Ltd @ Singapore Chinese Girls'","lng":103.82774,"lat":1.32081},{"name":"Graceland (CCK) Pte Ltd","lng":103.75312,"lat":1.38003},{"name":"Big Heart Student Care @ Innova","lng":103.79056,"lat":1.42918},{"name":"Nascans Theta Pte Ltd @ Pei Tong Primary School","lng":103.76744,"lat":1.31667},{"name":"STAR CAMPUS @ CHIJ OUR LADY OF GOOD COUNSEL","lng":103.86401,"lat":1.35743},{"name":"YMCA Student Care Centre @ Rulang","lng":103.71846,"lat":1.34674},{"name":"New Life Student Care (Woodlands)","lng":103.79424,"lat":1.43012},{"name":"Big Heart Student Care @ Cedar","lng":103.87521,"lat":1.33567},{"name":"Nascans Gamma Pte Ltd @ East Spring Primary School","lng":103.96168,"lat":1.35268},{"name":"Big Heart Student Care @ Evergreen","lng":103.79455,"lat":1.44415},{"name":"OOSH Yishun Park","lng":103.83714,"lat":1.4202},{"name":"YMCA Student Care Centre @ Chua Chu Kang","lng":103.74127,"lat":1.37761},{"name":"Commit Learning SchoolHouse @ Gongshang Primary School \u2013 CLS Feng Pte Ltd","lng":103.94884,"lat":1.35754},{"name":"Raffles Student Care (Punggol View) Pte Ltd","lng":103.90516,"lat":1.40515},{"name":"YMCA Student Care Centre @ Canberra","lng":103.81585,"lat":1.45201},{"name":"Nascans Beta Pte Ltd @ Bukit Panjang Primary School","lng":103.76932,"lat":1.37347},{"name":"Jessin Student Care Centre","lng":103.84849,"lat":1.33735},{"name":"Pro-Teach Education (Xinghua)","lng":103.89022,"lat":1.358},{"name":"Ascenda Educare Centre (Woodlands)","lng":103.79651,"lat":1.44187},{"name":"YMCA Student Care Centre @ Jing Shan","lng":103.85176,"lat":1.37196},{"name":"Big Heart Student Care @ North View","lng":103.84819,"lat":1.42752},{"name":"YMCA Student Care Centre @ White Sands","lng":103.96086,"lat":1.36564},{"name":"Brighton Connection Student Care Centre Simei","lng":103.95136,"lat":1.34135},{"name":"AWWA Special Student Care Centre","lng":103.87882,"lat":1.37277},{"name":"Life Community Ltd @ Sengkang","lng":103.88811,"lat":1.38989},{"name":"WMCS-Sengkang Student Care Centre","lng":103.90075,"lat":1.38866},{"name":"YMCA Student Care Centre @ Jurong West 1","lng":103.70138,"lat":1.33977},{"name":"PCF Student Care Centre @ Ulu Pandan","lng":103.78836,"lat":1.31227},{"name":"Ace @ Work Student Care Pte Ltd (Si Ling Primary)","lng":103.78578,"lat":1.4327},{"name":"Good Shepherd Student Care","lng":103.83981,"lat":1.34044},{"name":"Time Out Smarties Pte Ltd","lng":103.74307,"lat":1.37781},{"name":"Max Student Care Services","lng":103.74281,"lat":1.34716},{"name":"Big Heart Student Care @ Princess Elizabeth","lng":103.74031,"lat":1.34943},{"name":"Careland Student Care Centre","lng":103.89485,"lat":1.36567},{"name":"Brain Booster","lng":103.88666,"lat":1.35289},{"name":"PCF Yew Tee Student Care  Centre","lng":103.74473,"lat":1.39492},{"name":"Ananias Centre (Choa Chu Kang)","lng":103.74066,"lat":1.37927},{"name":"PCF Telok Blangah Student Care Centre","lng":103.81216,"lat":1.27608},{"name":"Mainspring Learning Centre LLP","lng":103.81359,"lat":1.4552},{"name":"QSF-The Enablers @ Sembawang Primary","lng":103.82102,"lat":1.44504},{"name":"Commit Learning SchoolHouse @ Pei Hwa Presbyterian Primary School","lng":103.77611,"lat":1.33806},{"name":"PRO-TEACH EDUCATION @ TELOK KURAU","lng":103.91093,"lat":1.33105},{"name":"Pro-Teach Before & After School Care (Pioneer)","lng":103.69641,"lat":1.34375},{"name":"OOSH Margaret Drive","lng":103.80879,"lat":1.2976},{"name":"RAFFLES STUDENT CARE (ZHENGHUA) PTE. LTD.","lng":103.76912,"lat":1.37972},{"name":"Nascans Planck Pte Ltd @ Fuhua Primary","lng":103.73609,"lat":1.3366},{"name":"Big Heart Student Care @ Chongzheng","lng":103.95123,"lat":1.35059},{"name":"Pro-Teach Before & After School Care (Yuhua Branch).","lng":103.73707,"lat":1.33997},{"name":"Big Heart Student Care @ Unity","lng":103.7468,"lat":1.40278},{"name":"Nascans Tau Pte Ltd @ Bukit View Primary School","lng":103.7533,"lat":1.34625},{"name":"Happy Star Learning Hub Pte Ltd","lng":103.74097,"lat":1.37817},{"name":"PCF Sparkletots Bishan East Student Care Centre","lng":103.85258,"lat":1.34935},{"name":"Ace @ Work Student Care Pte Ltd (River Valley Primary)","lng":103.83582,"lat":1.29422},{"name":"Commit Learning SchoolHouse @ Tampines Primary School","lng":103.9434,"lat":1.34994},{"name":"Big Heart Student Care @ Teck Whye","lng":103.75329,"lat":1.38365},{"name":"Knowledge Park Campus LLP","lng":103.95735,"lat":1.36949},{"name":"Lakeside Student Care (Jurong West)","lng":103.72015,"lat":1.34675},{"name":"Kowabunga Education Centre LLP @Teck Whye","lng":103.75183,"lat":1.38193},{"name":"Pro-Teach BASC (Rosyth) Pte Ltd","lng":103.87256,"lat":1.3743},{"name":"Pro-Teach Education (Bukit Batok East)","lng":103.75724,"lat":1.3467},{"name":"Commit Learning SchoolHouse @ Mee Toh School \u2013 CLS Zephyrus Pte Ltd","lng":103.90857,"lat":1.39485},{"name":"Nascans @ Corporation Student Care","lng":103.70758,"lat":1.35149},{"name":"Junior Seekers @ Tampines","lng":103.93389,"lat":1.37193},{"name":"Big Heart Student Care @ Woodlands Ring","lng":103.79741,"lat":1.43485},{"name":"Nascans Nu Pte Ltd @ Catholic High School","lng":103.8442,"lat":1.35471},{"name":"Nascans @ Waterway Primary School","lng":103.91835,"lat":1.39973},{"name":"Ace @ Work Enrichment Pte Ltd (Jelapang Branch)","lng":103.76685,"lat":1.38288},{"name":"Bedok Graceland Student Care Centre","lng":103.92174,"lat":1.33738},{"name":"Tots Town Preschool @ Sembawang","lng":103.81508,"lat":1.45207},{"name":"Big Heart Student Care @ Chongfu","lng":103.83907,"lat":1.43846},{"name":"Sailors Student Care Centre (Redhill) Pte Ltd","lng":103.81409,"lat":1.2885},{"name":"Pro-Teach Before & After School Care (Jurong)","lng":103.7202,"lat":1.3405},{"name":"Pro-Teach Before & After School Care (Corporation)","lng":103.7196,"lat":1.33736},{"name":"Morning Star Community Services Ltd (Bedok North)","lng":103.93252,"lat":1.3334},{"name":"Ace @ Work Enrichment Pte Ltd (Bukit Batok Branch)","lng":103.75746,"lat":1.34441},{"name":"Sparks Student Care Centre","lng":103.87912,"lat":1.31484},{"name":"Toa Payoh East Student Care Centre","lng":103.85424,"lat":1.33599},{"name":"Nascans Epsilon Pte. Ltd.@ Fengshan Primary School","lng":103.93171,"lat":1.32981},{"name":"Morning Star Community Services Ltd (Sengkang)","lng":103.8943,"lat":1.3935},{"name":"Serangoon Moral Family Service Centre (Student Care Centre)","lng":103.86869,"lat":1.3532},{"name":"RAFFLES STUDENT CARE (TANJONG KATONG) PTE. LTD.","lng":103.9,"lat":1.30498},{"name":"Pro-Teach Schoolcare (SJIJ) LLP","lng":103.84561,"lat":1.31773},{"name":"Commit Learning SchoolHouse @ Yishun Primary School \u2013 CLS Circinus Pte Ltd","lng":103.83392,"lat":1.43351},{"name":"Commit Learning SchoolHouse @ Pioneer Primary School \u2013 CLS Draco Pte Ltd","lng":103.73279,"lat":1.35443},{"name":"Pro-Teach Education (Ai Tong)","lng":103.83302,"lat":1.36058},{"name":"Talent Scout Student Care Centre Pte Ltd.","lng":103.81274,"lat":1.44477},{"name":"Ace@work Studentcare Pte Ltd (Pasir Ris Pri)","lng":103.96281,"lat":1.37242},{"name":"Singapore Edusmart Learning Hub (Northoaks Primary School)","lng":103.81361,"lat":1.45667},{"name":"Nascans Eta Pte Ltd @ Jiemin Primary School","lng":103.8304,"lat":1.42761},{"name":"Rhapsody Student Care @ Pek Kio CC","lng":103.85137,"lat":1.31306},{"name":"Childhood Builder After School Pte Ltd","lng":103.81382,"lat":1.29109},{"name":"Knowledge Park Education Centre Pte Ltd","lng":103.6977,"lat":1.3461},{"name":"Nascans @ Westwood Primary School","lng":103.70047,"lat":1.34771},{"name":"Nascans Planck Pte. Ltd @ De La Salle School","lng":103.74312,"lat":1.39479},{"name":"Radiance Student Care Centre","lng":103.86806,"lat":1.34963},{"name":"Clementi Student Care Centre","lng":103.76892,"lat":1.31282},{"name":"PCF Hong Kah North Student Care Centre","lng":103.74954,"lat":1.36314},{"name":"YMCA Student Care Centre @ Kuo Chuan","lng":103.85445,"lat":1.34911},{"name":"Star Campus @ Gan Eng Seng Pri","lng":103.81523,"lat":1.28596},{"name":"YMCA Student Care Centre @ Jurong West 2","lng":103.69874,"lat":1.33971},{"name":"Singapore Edusmart Learning Hub @ CHIJ Primary (Toa Payoh)","lng":103.84185,"lat":1.33275},{"name":"Ace @ Work Student Care Pte Ltd (Holy Innocents' Primary)","lng":103.89368,"lat":1.36674},{"name":"Nascans @ Horizon","lng":103.9129,"lat":1.40022},{"name":"YMCA Student Care Centre @ Valour","lng":103.89876,"lat":1.40744},{"name":"Kowabunga Education Centre LLP @ Jurong East Sports Centre","lng":103.72884,"lat":1.34622},{"name":"Child At Street 11 Ltd","lng":103.83941,"lat":1.37065},{"name":"Ace @ Work Student Care Pte Ltd (Maris Stella High)","lng":103.87744,"lat":1.34206},{"name":"TKC (Bukit Batok) Pte Ltd","lng":103.74154,"lat":1.34641},{"name":"YMCA Student Care Centre @ Seng Kang","lng":103.89953,"lat":1.38925},{"name":"The Next Lap Student Care - AMK","lng":103.83817,"lat":1.37355},{"name":"Knowledge Park Educare (SC) Pte Ltd @ Keming Primary School","lng":103.75592,"lat":1.34506},{"name":"Pro-Teach Education Group Pte Ltd (Palm View)","lng":103.89122,"lat":1.38384},{"name":"Altius Enrichment Pte Ltd","lng":103.83124,"lat":1.28742},{"name":"Joy Connection Student Care Centre","lng":103.87979,"lat":1.37664},{"name":"Kidz Treehouse @ RS Pte Ltd (Rosyth School)","lng":103.87469,"lat":1.37292},{"name":"New Life Student Care (Jelapang)","lng":103.768,"lat":1.38656},{"name":"Morning Star Community Services Ltd (Primavera)","lng":103.94206,"lat":1.33387},{"name":"Nascans @ Kranji Primary School","lng":103.74683,"lat":1.39369},{"name":"Life Community Ltd @ Hougang","lng":103.88416,"lat":1.37409},{"name":"Big Heart Student Care @ Yangzheng","lng":103.86836,"lat":1.34897},{"name":"Allkin Student Academy @ Ang Mo Kio","lng":103.8379,"lat":1.36885},{"name":"Big Heart Student Care @ Kheng Cheng","lng":103.84714,"lat":1.33729},{"name":"D'Learners Education Centre Pte. Ltd.","lng":103.71951,"lat":1.34572},{"name":"PRO-TEACH SCHOOLCARE (NORTH SPRING) LLP","lng":103.90309,"lat":1.38708},{"name":"Ace @ Work Studentcare Pte Ltd (Yio Chu Kang Primary School - 538720)","lng":103.88557,"lat":1.37782},{"name":"Nascans @ St. Gabriel's Primary School","lng":103.86231,"lat":1.34931},{"name":"Nascans @ Endeavour Primary School","lng":103.81717,"lat":1.45388},{"name":"Nascans Zeta Pte Ltd @ Northland Primary School","lng":103.84079,"lat":1.4213},{"name":"Oasis Student Care Centre @ Choa Chu Kang Pte Ltd","lng":103.74213,"lat":1.37971},{"name":"Ace @ Work Studentcare Pte Ltd (Poi Ching School - 529067)","lng":103.93512,"lat":1.35786},{"name":"Singapore Edusmart Learning Hub (Kong Hwa School)","lng":103.88817,"lat":1.31102},{"name":"Pro-Teach Choa Chu Kang Central","lng":103.74911,"lat":1.38051},{"name":"Allkin Student Academy @ Sengkang","lng":103.89726,"lat":1.38813},{"name":"RAFFLES STUDENT CARE (PUNGGOL) PTE. LTD.","lng":103.89451,"lat":1.37779},{"name":"Ace @ Work Studentcare Pte Ltd (Yuhua Primary School - 609558)","lng":103.74086,"lat":1.34292},{"name":"Commit Learning SchoolHouse @ Cantonment Primary School","lng":103.83992,"lat":1.27551},{"name":"Sailors Student Care Centre Pte Ltd","lng":103.89328,"lat":1.3772},{"name":"Ace@work Studentcare Pte Ltd (Radin Mas - 099840)","lng":103.82409,"lat":1.27499},{"name":"Commit Learning SchoolHouse @ Changkat Primary School","lng":103.95208,"lat":1.34023},{"name":"Commit Learning SchoolHouse @ Hougang Primary School","lng":103.88081,"lat":1.37738},{"name":"Nascans @ Townsville Primary School","lng":103.85377,"lat":1.35995},{"name":"CHIJ SANCTUARY FOR CHILDREN LIMITED","lng":103.83352,"lat":1.37478},{"name":"Commit Learning SchoolHouse @ Springdale Primary School","lng":103.88942,"lat":1.39529},{"name":"Big Heart Student Care @ Fuchun","lng":103.77818,"lat":1.43064},{"name":"Ginger Spark Education Pte Ltd","lng":103.86744,"lat":1.34748},{"name":"Marine Parade Maha Bodhi Student Care Centre","lng":103.90262,"lat":1.32925},{"name":"Sages Academy Student Care Pte Ltd","lng":103.79681,"lat":1.44284},{"name":"Learning Sprouts Student Care (Mayflower)","lng":103.83817,"lat":1.37355},{"name":"Commit Learning SchoolHouse @ Haig Girls' School","lng":103.90266,"lat":1.31177},{"name":"PRO-TEACH EDUCATION (CLEMENTI PRIMARY) PTE. LTD.","lng":103.76297,"lat":1.31506},{"name":"Singapore Edusmart Learning Hub (Wellington Primary School)","lng":103.82228,"lat":1.4521},{"name":"The Learning Harbour @ Hong Wen School","lng":103.85763,"lat":1.32176},{"name":"The Next Lap Edu Centre Pte Ltd","lng":103.93048,"lat":1.33245},{"name":"Nascans Faraday Pte Ltd @ Lakeside Primary School","lng":103.71805,"lat":1.33838},{"name":"Singapore Edusmart Learning Hub (South View Primary School)","lng":103.74628,"lat":1.38167},{"name":"Commit Learning SchoolHouse @ Huamin Primary School","lng":103.84409,"lat":1.4273},{"name":"Singapore Edusmart Learning Hub (Sengkang Green Primary School)","lng":103.87498,"lat":1.39254},{"name":"Commit Learning SchoolHouse @ Montfort Junior School","lng":103.88931,"lat":1.37382},{"name":"Commit Learning SchoolHouse @ Riverside Primary School","lng":103.80183,"lat":1.44705},{"name":"Commit Learning SchoolHouse @ Park View Primary School","lng":103.9392,"lat":1.37802},{"name":"Learning Studio Educare @ Anchor Green Primary School","lng":103.88692,"lat":1.391},{"name":"Raffles Student Care (Angsana) Pte Ltd","lng":103.93891,"lat":1.36325},{"name":"Commit Learning SchoolHouse @ Shuqun Primary School \u2013 CLS Grus Pte Ltd","lng":103.72146,"lat":1.3476},{"name":"Commit Learning SchoolHouse @ Methodist Girls' (Primary) \u2013 CLS Artemis Pte Ltd","lng":103.78296,"lat":1.33293},{"name":"Commit Learning SchoolHouse @ North Vista Primary School \u2013 CLS Polaris Pte Ltd","lng":103.89585,"lat":1.38289},{"name":"Raffles Student Care (Frontier) Pte Ltd","lng":103.69967,"lat":1.33721},{"name":"RAFFLES STUDENT CARE (FERN GREEN) PTE LTD","lng":103.88002,"lat":1.39788},{"name":"Nascans Upsilon Pte. Ltd @ Edgefield Primary School","lng":103.90743,"lat":1.4003},{"name":"YMCA Student Care Centre @ CHIJ Our Lady of the Nativity","lng":103.89758,"lat":1.3733},{"name":"WHEE! CANOPUS STUDENT CARE @ BLOCK 160 YISHUN","lng":103.83334,"lat":1.43241},{"name":"Canossaville Student Care (Special)","lng":103.881,"lat":1.32685},{"name":"YMCA Student Care Centre @ Alexandra","lng":103.82394,"lat":1.2913},{"name":"YMCA Student Care Centre @ Tao Nan","lng":103.91113,"lat":1.30504},{"name":"Commit Learning SchoolHouse @ Paya Lebar Methodist Girls' (Primary) \u2013 CLS Quirinus Pte Ltd","lng":103.88485,"lat":1.35025},{"name":"Care Corner Student Care Centre (Admiralty)","lng":103.80014,"lat":1.44192},{"name":"Commit Learning Schoolhouse @ Anglo-Chinese School (Primary) - CLS Sparta Pte Ltd","lng":103.83535,"lat":1.31872},{"name":"Commit Learning Schoolhouse @ Blangah Rise Primary School","lng":103.80859,"lat":1.27613},{"name":"Raffles Student Care (Fernvale) Pte Ltd","lng":103.87409,"lat":1.38966},{"name":"Raffles Student Care (Junyuan) Pte Ltd","lng":103.93903,"lat":1.34805},{"name":"Big Heart Student Care @ West View","lng":103.76017,"lat":1.38409},{"name":"Nascans @ Meridian Student Care","lng":103.93488,"lat":1.37557},{"name":"Kidzstart LLP","lng":103.74453,"lat":1.38148},{"name":"YMCA Student Care Centre @ St Margaret's","lng":103.84582,"lat":1.30414},{"name":"YMCA Student Care Centre @ Punggol Waterway","lng":103.89888,"lat":1.40777},{"name":"Hope Learning Center Pte Ltd","lng":103.7177,"lat":1.34996},{"name":"Sunlove Bm Student Care Centre","lng":103.82381,"lat":1.28506},{"name":"Knowledge Park Educare (BG) Pte Ltd @ Opera Estate Primary School","lng":103.92375,"lat":1.31997},{"name":"Big Heart Student Care @ Yumin","lng":103.95046,"lat":1.35129},{"name":"YMCA Student Care Centre @ St Anthony's","lng":103.74925,"lat":1.36412},{"name":"Little Stars Academy","lng":103.79525,"lat":1.43581},{"name":"The Learning Harbour @ Admiralty Primary School","lng":103.80004,"lat":1.44263},{"name":"Apples & Pencils Student Care Centre","lng":103.83178,"lat":1.43454},{"name":"Nascans Delta Pte Ltd @ Compassvale Primary School","lng":103.89781,"lat":1.39445},{"name":"Enrichment 718 Pte Ltd","lng":103.69747,"lat":1.34372},{"name":"Nascans Coulomb Pte. Ltd @ Woodlands Primary School","lng":103.79157,"lat":1.43655},{"name":"Heartfriends BASC","lng":103.78232,"lat":1.3038},{"name":"STAR CAMPUS @ ANGLO-CHINESE SCHOOL (JUNIOR)","lng":103.84079,"lat":1.30938},{"name":"Big Heart Student Care @ Tampines North","lng":103.94873,"lat":1.36048},{"name":"Pro-Teach BASC (CCK)","lng":103.74096,"lat":1.3786},{"name":"JSL Education Centre","lng":103.73988,"lat":1.34417},{"name":"Big Heart Student Care @ Concord","lng":103.73619,"lat":1.38029},{"name":"MINDS Raintree Special Student Care Centre @ WGS","lng":103.79787,"lat":1.43719},{"name":"MIJ Hub @ Changi","lng":103.90122,"lat":1.31649},{"name":"Star Campus @ Greenridge Pri","lng":103.76779,"lat":1.38589},{"name":"Hougang Sheng Hong Student Care Centre","lng":103.88897,"lat":1.35714},{"name":"Little Bodhi Student Care Centre","lng":103.77459,"lat":1.43368},{"name":"Nascans @ West Spring Student care","lng":103.76608,"lat":1.38907},{"name":"Big Heart Student Care @ Qihua","lng":103.78834,"lat":1.44204},{"name":"Care Corner Student Care Centre (Woodlands)","lng":103.77902,"lat":1.43187},{"name":"Big Heart Student Care @ Marsiling","lng":103.77364,"lat":1.43393},{"name":"Nascans Faraday Pte Ltd @ CHIJ Katong Primary","lng":103.91092,"lat":1.30653},{"name":"Nascans @ Ang Mo Kio Student Care","lng":103.83904,"lat":1.36909},{"name":"YMCA Student Care Centre @ Oasis","lng":103.9109,"lat":1.40446},{"name":"Big Heart Student Care @ Bendemeer","lng":103.86472,"lat":1.32254},{"name":"Pro-Teach Schoolcare (Rivervale) LLP","lng":103.90455,"lat":1.39334},{"name":"Big Heart Student Care @ Lianhua","lng":103.75413,"lat":1.35416},{"name":"Big Heart Student Care @ Boon Lay Garden","lng":103.71286,"lat":1.34284},{"name":"Raffles Student Care (Casuarina) Pte Ltd","lng":103.95702,"lat":1.37246},{"name":"Dajin Learning Centre","lng":103.78814,"lat":1.44267},{"name":"Best World Learning Centre Pte Ltd","lng":103.84628,"lat":1.42442},{"name":"7oaks Student Care Jurong","lng":103.71788,"lat":1.3461},{"name":"Commit Learning SchoolHouse @ New Town Primary School","lng":103.79996,"lat":1.29981},{"name":"Rivervale Student Care Center","lng":103.90723,"lat":1.39248},{"name":"Life Student Care @ Ahmad Ibrahim","lng":103.83275,"lat":1.43341},{"name":"First Love Student Care Centre","lng":103.72116,"lat":1.34812},{"name":"Appleland Montessori Child Care Centre Pte Ltd","lng":103.74192,"lat":1.34734},{"name":"Ananias Centre (Clementi)","lng":103.76419,"lat":1.316},{"name":"Aljunied Tung Ling Student Care Centre","lng":103.88426,"lat":1.3516},{"name":"Singapore Edusmart Learning Hub (Elias Park Primary School)","lng":103.94513,"lat":1.37451},{"name":"Ark Student Care Centre","lng":103.7442,"lat":1.34883},{"name":"7oaks Student Care - Bedok","lng":103.91341,"lat":1.33344},{"name":"Pro-Teach Schoolcare (Yew Tee)","lng":103.75099,"lat":1.39677},{"name":"Super Talent Student Care @ Punggol Walk","lng":103.89892,"lat":1.4006},{"name":"YMCA Student Care Centre @ Punggol Green","lng":103.89848,"lat":1.40153},{"name":"Edufirst Learning Centre","lng":103.79858,"lat":1.44259},{"name":"Canossaville Student Care","lng":103.881,"lat":1.32685},{"name":"Aethelred Eduwave LLP","lng":103.7703,"lat":1.38278},{"name":"YMCA Student Care Centre @ St Stephen's","lng":103.91726,"lat":1.31879},{"name":"Bethel Student Care Centre","lng":103.88667,"lat":1.32177},{"name":"Sapphire Learning Centre","lng":103.69859,"lat":1.34548},{"name":"Excel Learning Hub","lng":103.76219,"lat":1.30416},{"name":"Commit Learning SchoolHouse @ First Toa Payoh Primary School \u2013 CLS EOS Pte Ltd","lng":103.85553,"lat":1.34032},{"name":"Big Heart Student Care @ Xishan","lng":103.83776,"lat":1.43347},{"name":"Dowell Tuition Centre","lng":103.87348,"lat":1.36948},{"name":"Happycare Pte. Ltd.","lng":103.93109,"lat":1.33307},{"name":"AFTERBELL BY MNLA PTE. LTD.","lng":103.87022,"lat":1.3699},{"name":"Big Heart Student Care @ Damai","lng":103.92127,"lat":1.33535},{"name":"Commit Learning Schoolhouse @ Tampines","lng":103.95108,"lat":1.35906},{"name":"Nascans Fermi Pte. Ltd @ Maha Bodhi School","lng":103.9013,"lat":1.32847},{"name":"After School Adventure Club","lng":103.95325,"lat":1.36163},{"name":"PCF Bukit Batok Student Care Services","lng":103.74408,"lat":1.34967},{"name":"Knowledge Park Educare (NE) Pte Ltd @ Raffles Girls School","lng":103.80622,"lat":1.33007},{"name":"Junior Seekers Tampines East","lng":103.95511,"lat":1.35901},{"name":"MIJ Hub @ Woodlands","lng":103.80681,"lat":1.43802},{"name":"Oasis Student Care Centre Pte Ltd","lng":103.80588,"lat":1.43665},{"name":"Big Heart Student Care @ Mayflower","lng":103.84317,"lat":1.3764},{"name":"Knowledge Park Academy Pte Ltd","lng":103.88071,"lat":1.37662},{"name":"RAFFLES STUDENT CARE (TM) PTE. LTD.","lng":103.94551,"lat":1.31769},{"name":"Big Heart Student Care @ Greenwood","lng":103.80452,"lat":1.44011},{"name":"Sunshine Club Student Care Centre","lng":103.93474,"lat":1.33122},{"name":"Junior Seekers @ Fajar","lng":103.77074,"lat":1.38328},{"name":"Big Heart Student Care @ Qifa","lng":103.75663,"lat":1.31327},{"name":"KAMPUNG SENANG STUDENT CARE CENTRE","lng":103.93562,"lat":1.35114},{"name":"Train Kids Educare Centre LLP","lng":103.96301,"lat":1.35342},{"name":"YMCA Student Care Centre @ St Anthony's Canossian","lng":103.94054,"lat":1.33517},{"name":"YMCA Student Care Centre @ Beacon","lng":103.77363,"lat":1.38395},{"name":"Big Heart Student Care @ Xingnan","lng":103.68759,"lat":1.34271},{"name":"Ace @ Work Student Care Pte Ltd (Henry Park Primary)","lng":103.78413,"lat":1.31675},{"name":"St Andrew's House","lng":103.86574,"lat":1.32959},{"name":"Nascans Mu Pte Ltd @ Nan Hua Primary School","lng":103.7611,"lat":1.3192},{"name":"Nascans Iota Pte Ltd @ Xinmin Primary School","lng":103.88281,"lat":1.37177},{"name":"Nascans Phi Pte Ltd @ Red Swastika Primary School","lng":103.93432,"lat":1.33406},{"name":"Nascans @ Queenstown Student Care","lng":103.80755,"lat":1.29559},{"name":"Blue Lion Preschool","lng":103.91323,"lat":1.31263},{"name":"New Life Student Care Centre (Teck Whye)","lng":103.75383,"lat":1.38159},{"name":"Life Community Ltd @ Yishun","lng":103.83615,"lat":1.4202},{"name":"Ace @ Work Student Care Pte Ltd (Ngee Ann Primary)","lng":103.91746,"lat":1.30553},{"name":"Nascans Chi Pte Ltd @ Jurong Primary School","lng":103.73295,"lat":1.34861},{"name":"Graceland Student Care Centre (Woodlands)","lng":103.79812,"lat":1.44575},{"name":"Big Heart Student Care @ Zhangde","lng":103.82595,"lat":1.28421},{"name":"Active Learners Eduhub Private Limited","lng":103.95279,"lat":1.35987},{"name":"JY Maison Pte Ltd","lng":103.84568,"lat":1.37263},{"name":"Big Heart Student Care @ Yu Neng","lng":103.93202,"lat":1.33398},{"name":"Ascenda Educare Centre (Tampines)","lng":103.95028,"lat":1.34916},{"name":"Ananias Centre (Ang Mo Kio)","lng":103.85178,"lat":1.36359},{"name":"Ace @ Work Student Care Pte Ltd (Bedok Green Primary)","lng":103.93775,"lat":1.324},{"name":"Little Smarties Student Care","lng":103.83357,"lat":1.43189},{"name":"MINDS Raintree Special Student Care Centre @ FGS","lng":103.8749,"lat":1.38937},{"name":"Junior Seekers Pte Ltd (Woodlands)","lng":103.7843,"lat":1.43527},{"name":"Star Of The Sea Basc Centre","lng":103.8386,"lat":1.43651},{"name":"Singapore Edusmart Learning Hub (Greendale Primary School)","lng":103.91233,"lat":1.39648},{"name":"SAMS SSCC","lng":103.76003,"lat":1.34234},{"name":"PCS Pasir Ris 01 SCC","lng":103.94074,"lat":1.37679},{"name":"Hearty Care Centre","lng":103.90023,"lat":1.38929},{"name":"Student Care Centre @ GOS","lng":103.76476,"lat":1.30639},{"name":"TKC (Toa Payoh) Pte. Ltd.","lng":103.84245,"lat":1.33028},{"name":"Success Education Place","lng":103.85684,"lat":1.31884},{"name":"Kidz Inc Educare Learning Centre Pte Ltd","lng":103.95108,"lat":1.35906},{"name":"Commit Learning SchoolHouse @ Farrer Park Primary School","lng":103.85054,"lat":1.31194},{"name":"Pro-Teach Before & After School School Care (Yung An)","lng":103.71978,"lat":1.33616},{"name":"STAR CAMPUS @ BUKIT TIMAH PRI","lng":103.76683,"lat":1.3373},{"name":"Ace@work Studentcare Pte Ltd (Nanyang Pri - 268097)","lng":103.80768,"lat":1.32107},{"name":"Kowabunga Education Centre LLP","lng":103.70628,"lat":1.33501},{"name":"Evangel Student Care Centre (Canberra)","lng":103.82206,"lat":1.45038},{"name":"Super Talent Student Care @ Bukit Panjang","lng":103.76814,"lat":1.37587},{"name":"Nascans Omega Pte Ltd @ Canberra Primary School","lng":103.81571,"lat":1.45082},{"name":"STA Student Care Centre","lng":103.76193,"lat":1.38406},{"name":"Commit Learning Schoolhouse @ Naval Base Primary School","lng":103.83853,"lat":1.41646},{"name":"Commit Learning Schoolhouse @ Anderson Primary School","lng":103.84124,"lat":1.38467},{"name":"Sunflower Student Care Pte Ltd","lng":103.90193,"lat":1.32987},{"name":"Pro-Teach BASC (Pasir Ris) Pte Ltd","lng":103.93354,"lat":1.3764},{"name":"Thong Kheng Student Care Centre","lng":103.93692,"lat":1.35133},{"name":"Kidsville Student Care Centre","lng":103.83524,"lat":1.43362},{"name":"APSN Ltd","lng":103.85843,"lat":1.37322},{"name":"Learning Studio Educare @ Zhonghua Primary School","lng":103.8697,"lat":1.36017},{"name":"Morning Star Community Services Ltd (Hougang)","lng":103.89553,"lat":1.36779},{"name":"Nascans @ Nan Chiau Student Care","lng":103.89092,"lat":1.39206},{"name":"Dstar Educentre Pte Ltd","lng":103.6978,"lat":1.34641},{"name":"The Salvation Army WBC @ Bukit Panjang Student Care Centre","lng":103.76755,"lat":1.38064},{"name":"Nascans@Punggol Cove Primary School","lng":103.8988,"lat":1.4116},{"name":"Nascans Lambda Pte Ltd @ Geylang Methodist Primary School","lng":103.88363,"lat":1.31814},{"name":"Little Cocoon Student Care LLP","lng":103.71884,"lat":1.34983},{"name":"The Choice @ Knowledge Park Pte. Ltd. (Choa Chu Kang Branch)","lng":103.74533,"lat":1.38249}]