[{"name": "Admiralty", "lng": 103.80096, "lat": 1.44064, "kind": "MRT", "lines": ["NSL"]}, {"name": "Aljunied", "lng": 103.88291, "lat": 1.31645, "kind": "MRT", "lines": ["EWL"]}, {"name": "Ang Mo Kio", "lng": 103.84952, "lat": 1.37008, "kind": "MRT", "lines": ["NSL"]}, {"name": "Bahar Junction", "lng": 103.70236, "lat": 1.34581, "kind": "MRT", "lines": ["JRL"]}, {"name": "Bakau", "lng": 103.90542, "lat": 1.38801, "kind": "LRT", "lines": ["SKLRT"]}, {"name": "Bartley", "lng": 103.8797, "lat": 1.34291, "kind": "MRT", "lines": ["CCL"]}, {"name": "Bayfront", "lng": 103.85968, "lat": 1.2826, "kind": "MRT", "lines": ["CCL", "DTL"]}, {"name": "Bayshore", "lng": 103.94231, "lat": 1.31283, "kind": "MRT", "lines": ["TEL"]}, {"name": "Beauty World", "lng": 103.77588, "lat": 1.34109, "kind": "MRT", "lines": ["DTL"]}, {"name": "Bedok", "lng": 103.93022, "lat": 1.32397, "kind": "MRT", "lines": ["EWL"]}, {"name": "Bedok North", "lng": 103.91831, "lat": 1.3346, "kind": "MRT", "lines": ["DTL"]}, {"name": "Bedok Reservoir", "lng": 103.93247, "lat": 1.3366, "kind": "MRT", "lines": ["DTL"]}, {"name": "Bencoolen", "lng": 103.85028, "lat": 1.29852, "kind": "MRT", "lines": ["NSL", "CCL", "DTL"]}, {"name": "Bendemeer", "lng": 103.86272, "lat": 1.31364, "kind": "MRT", "lines": ["DTL"]}, {"name": "Bishan", "lng": 103.84904, "lat": 1.35099, "kind": "MRT", "lines": ["NSL", "CCL"]}, {"name": "Boon Keng", "lng": 103.86155, "lat": 1.31913, "kind": "MRT", "lines": ["NEL"]}, {"name": "Boon Lay", "lng": 103.70581, "lat": 1.33855, "kind": "MRT", "lines": ["EWL", "JRL"]}, {"name": "Botanic Gardens", "lng": 103.81565, "lat": 1.3221, "kind": "MRT", "lines": ["CCL", "DTL"]}, {"name": "Braddell", "lng": 103.84692, "lat": 1.3403, "kind": "MRT", "lines": ["NSL"]}, {"name": "Bras Basah", "lng": 103.85075, "lat": 1.29688, "kind": "MRT", "lines": ["EWL", "NSL", "CCL", "DTL"]}, {"name": "Bright Hill", "lng": 103.83482, "lat": 1.36306, "kind": "MRT", "lines": ["TEL"]}, {"name": "Buangkok", "lng": 103.89313, "lat": 1.38297, "kind": "MRT", "lines": ["NEL"]}, {"name": "Bugis", "lng": 103.85628, "lat": 1.29995, "kind": "MRT", "lines": ["EWL", "DTL"]}, {"name": "Bukit Batok", "lng": 103.74959, "lat": 1.34906, "kind": "MRT", "lines": ["NSL"]}, {"name": "Bukit Batok West", "lng": 103.73973, "lat": 1.34553, "kind": "MRT", "lines": ["JRL"]}, {"name": "Bukit Brown", "lng": 103.83068, "lat": 1.33375, "kind": "MRT", "lines": ["CCL"]}, {"name": "Bukit Gombak", "lng": 103.75182, "lat": 1.35889, "kind": "MRT", "lines": ["NSL"]}, {"name": "Bukit Panjang", "lng": 103.76153, "lat": 1.3791, "kind": "MRT", "lines": ["DTL"]}, {"name": "Buona Vista", "lng": 103.79035, "lat": 1.30663, "kind": "MRT", "lines": ["EWL", "CCL"]}, {"name": "Caldecott", "lng": 103.83981, "lat": 1.33737, "kind": "MRT", "lines": ["CCL", "TEL"]}, {"name": "Canberra", "lng": 103.82963, "lat": 1.44321, "kind": "MRT", "lines": ["NSL"]}, {"name": "Cantonment", "lng": 103.83706, "lat": 1.27311, "kind": "MRT", "lines": ["CCL"]}, {"name": "Cashew", "lng": 103.76473, "lat": 1.36936, "kind": "MRT", "lines": ["DTL"]}, {"name": "Changi Airport", "lng": 103.98853, "lat": 1.35757, "kind": "MRT", "lines": ["EWL"]}, {"name": "Cheng Lim", "lng": 103.89379, "lat": 1.39629, "kind": "LRT", "lines": ["SKLRT"]}, {"name": "Chinatown", "lng": 103.84414, "lat": 1.28469, "kind": "MRT", "lines": ["NEL", "DTL"]}, {"name": "Chinese Garden", "lng": 103.73255, "lat": 1.34241, "kind": "MRT", "lines": ["EWL"]}, {"name": "Choa Chu Kang", "lng": 103.74433, "lat": 1.38532, "kind": "MRT", "lines": ["NSL", "JRL"]}, {"name": "Choa Chu Kang West", "lng": 103.74, "lat": 1.37922, "kind": "MRT", "lines": ["JRL"]}, {"name": "City Hall", "lng": 103.85262, "lat": 1.29305, "kind": "MRT", "lines": ["EWL", "NSL", "CCL"]}, {"name": "Clarke Quay", "lng": 103.8466, "lat": 1.28826, "kind": "MRT", "lines": ["NEL"]}, {"name": "Clementi", "lng": 103.7659, "lat": 1.31613, "kind": "MRT", "lines": ["EWL"]}, {"name": "Commonwealth", "lng": 103.79831, "lat": 1.30244, "kind": "MRT", "lines": ["EWL"]}, {"name": "Compassvale", "lng": 103.90043, "lat": 1.39452, "kind": "LRT", "lines": ["SKLRT"]}, {"name": "Corporation", "lng": 103.71381, "lat": 1.35298, "kind": "MRT", "lines": ["JRL"]}, {"name": "Dakota", "lng": 103.88862, "lat": 1.30843, "kind": "MRT", "lines": ["CCL"]}, {"name": "Dhoby Ghaut", "lng": 103.84555, "lat": 1.2996, "kind": "MRT", "lines": ["NSL", "CCL", "NEL"]}, {"name": "Dover", "lng": 103.77861, "lat": 1.31142, "kind": "MRT", "lines": ["EWL"]}, {"name": "Downtown", "lng": 103.85279, "lat": 1.27951, "kind": "MRT", "lines": ["NSL", "DTL"]}, {"name": "Enterprise", "lng": 103.70854, "lat": 1.3328, "kind": "MRT", "lines": ["JRL"]}, {"name": "Esplanade", "lng": 103.85553, "lat": 1.29344, "kind": "MRT", "lines": ["CCL"]}, {"name": "Eunos", "lng": 103.90289, "lat": 1.3198, "kind": "MRT", "lines": ["EWL"]}, {"name": "Expo", "lng": 103.96266, "lat": 1.33508, "kind": "MRT", "lines": ["EWL", "DTL"]}, {"name": "Farmway", "lng": 103.88922, "lat": 1.39719, "kind": "LRT", "lines": ["SKLRT"]}, {"name": "Farrer Park", "lng": 103.85434, "lat": 1.31249, "kind": "MRT", "lines": ["NEL"]}, {"name": "Farrer Road", "lng": 103.80749, "lat": 1.31746, "kind": "MRT", "lines": ["CCL"]}, {"name": "Fernvale", "lng": 103.87628, "lat": 1.3919, "kind": "LRT", "lines": ["SKLRT"]}, {"name": "Fort Canning", "lng": 103.84435, "lat": 1.29249, "kind": "MRT", "lines": ["NEL", "DTL"]}, {"name": "Founders' Memorial", "lng": 103.86897, "lat": 1.29092, "kind": "MRT", "lines": ["TEL"]}, {"name": "Gardens by the Bay", "lng": 103.86795, "lat": 1.27923, "kind": "MRT", "lines": ["TEL"]}, {"name": "Gek Poh", "lng": 103.69808, "lat": 1.34833, "kind": "MRT", "lines": ["JRL"]}, {"name": "Geylang Bahru", "lng": 103.87196, "lat": 1.32151, "kind": "MRT", "lines": ["DTL"]}, {"name": "Great World", "lng": 103.83334, "lat": 1.29462, "kind": "MRT", "lines": ["TEL"]}, {"name": "Gul Circle", "lng": 103.66066, "lat": 1.31964, "kind": "MRT", "lines": ["EWL"]}, {"name": "HarbourFront", "lng": 103.82155, "lat": 1.26536, "kind": "MRT", "lines": ["CCL", "NEL"]}, {"name": "Havelock", "lng": 103.83367, "lat": 1.28855, "kind": "MRT", "lines": ["TEL"]}, {"name": "Haw Par Villa", "lng": 103.78185, "lat": 1.28268, "kind": "MRT", "lines": ["CCL"]}, {"name": "Hillview", "lng": 103.76746, "lat": 1.36235, "kind": "MRT", "lines": ["DTL"]}, {"name": "Holland Village", "lng": 103.79641, "lat": 1.31173, "kind": "MRT", "lines": ["CCL"]}, {"name": "Hong Kah", "lng": 103.72611, "lat": 1.35811, "kind": "MRT", "lines": ["JRL"]}, {"name": "Hume", "lng": 103.76912, "lat": 1.35447, "kind": "MRT", "lines": ["DTL"]}, {"name": "Jalan Besar", "lng": 103.85556, "lat": 1.30537, "kind": "MRT", "lines": ["DTL"]}, {"name": "Joo Koon", "lng": 103.67822, "lat": 1.32774, "kind": "MRT", "lines": ["EWL"]}, {"name": "Jurong East", "lng": 103.74229, "lat": 1.33311, "kind": "MRT", "lines": ["EWL", "NSL", "JRL"]}, {"name": "Jurong Hill", "lng": 103.71021, "lat": 1.31858, "kind": "MRT", "lines": ["JRL"]}, {"name": "Jurong Pier", "lng": 103.71044, "lat": 1.31302, "kind": "MRT", "lines": ["JRL"]}, {"name": "Jurong Town Hall", "lng": 103.74523, "lat": 1.32641, "kind": "MRT", "lines": ["JRL"]}, {"name": "Jurong West", "lng": 103.70829, "lat": 1.34919, "kind": "MRT", "lines": ["JRL"]}, {"name": "Kaki Bukit", "lng": 103.90837, "lat": 1.33507, "kind": "MRT", "lines": ["DTL"]}, {"name": "Kallang", "lng": 103.87134, "lat": 1.31147, "kind": "MRT", "lines": ["EWL"]}, {"name": "Kangkar", "lng": 103.90221, "lat": 1.38393, "kind": "LRT", "lines": ["SKLRT"]}, {"name": "Katong Park", "lng": 103.88622, "lat": 1.29796, "kind": "MRT", "lines": ["TEL"]}, {"name": "Kembangan", "lng": 103.91293, "lat": 1.32103, "kind": "MRT", "lines": ["EWL"]}, {"name": "Kent Ridge", "lng": 103.78468, "lat": 1.29326, "kind": "MRT", "lines": ["CCL"]}, {"name": "Keppel", "lng": 103.83071, "lat": 1.27046, "kind": "MRT", "lines": ["CCL", "NEL"]}, {"name": "Khatib", "lng": 103.83302, "lat": 1.41736, "kind": "MRT", "lines": ["NSL"]}, {"name": "King Albert Park", "lng": 103.78383, "lat": 1.33566, "kind": "MRT", "lines": ["DTL"]}, {"name": "Kovan", "lng": 103.885, "lat": 1.36021, "kind": "MRT", "lines": ["NEL"]}, {"name": "Kranji", "lng": 103.76199, "lat": 1.42522, "kind": "MRT", "lines": ["NSL"]}, {"name": "Kupang", "lng": 103.88125, "lat": 1.3982, "kind": "LRT", "lines": ["SKLRT"]}, {"name": "Labrador Park", "lng": 103.80299, "lat": 1.27225, "kind": "MRT", "lines": ["CCL"]}, {"name": "Lakeside", "lng": 103.72069, "lat": 1.34425, "kind": "MRT", "lines": ["EWL"]}, {"name": "Lavender", "lng": 103.86277, "lat": 1.30736, "kind": "MRT", "lines": ["EWL"]}, {"name": "Layar", "lng": 103.88003, "lat": 1.39208, "kind": "LRT", "lines": ["SKLRT"]}, {"name": "Lentor", "lng": 103.83637, "lat": 1.38475, "kind": "MRT", "lines": ["TEL"]}, {"name": "Little India", "lng": 103.84917, "lat": 1.30688, "kind": "MRT", "lines": ["NEL", "DTL"]}, {"name": "Lorong Chuan", "lng": 103.86395, "lat": 1.35154, "kind": "MRT", "lines": ["CCL"]}, {"name": "MacPherson", "lng": 103.88956, "lat": 1.32623, "kind": "MRT", "lines": ["CCL", "DTL"]}, {"name": "Marina Bay", "lng": 103.85531, "lat": 1.27547, "kind": "MRT", "lines": ["NSL", "CCL", "TEL"]}, {"name": "Marina South", "lng": 103.86289, "lat": 1.27431, "kind": "MRT", "lines": ["TEL"]}, {"name": "Marina South Pier", "lng": 103.86282, "lat": 1.27145, "kind": "MRT", "lines": ["NSL", "TEL"]}, {"name": "Marine Parade", "lng": 103.90707, "lat": 1.30371, "kind": "MRT", "lines": ["TEL"]}, {"name": "Marine Terrace", "lng": 103.91506, "lat": 1.3066, "kind": "MRT", "lines": ["TEL"]}, {"name": "Marsiling", "lng": 103.77412, "lat": 1.43257, "kind": "MRT", "lines": ["NSL"]}, {"name": "Marymount", "lng": 103.83954, "lat": 1.34863, "kind": "MRT", "lines": ["CCL", "TEL"]}, {"name": "Mattar", "lng": 103.88334, "lat": 1.32685, "kind": "MRT", "lines": ["DTL"]}, {"name": "Maxwell", "lng": 103.84388, "lat": 1.28062, "kind": "MRT", "lines": ["TEL"]}, {"name": "Mayflower", "lng": 103.83689, "lat": 1.37223, "kind": "MRT", "lines": ["TEL"]}, {"name": "Mount Pleasant", "lng": 103.83518, "lat": 1.32857, "kind": "MRT", "lines": ["TEL"]}, {"name": "Mountbatten", "lng": 103.88244, "lat": 1.30639, "kind": "MRT", "lines": ["CCL"]}, {"name": "Nanyang Crescent", "lng": 103.68113, "lat": 1.34854, "kind": "MRT", "lines": ["JRL"]}, {"name": "Nanyang Gateway", "lng": 103.68668, "lat": 1.35378, "kind": "MRT", "lines": ["JRL"]}, {"name": "Napier", "lng": 103.81915, "lat": 1.30672, "kind": "MRT", "lines": ["TEL"]}, {"name": "Newton", "lng": 103.83784, "lat": 1.31306, "kind": "MRT", "lines": ["NSL", "DTL"]}, {"name": "Nicoll Highway", "lng": 103.86387, "lat": 1.29984, "kind": "MRT", "lines": ["CCL"]}, {"name": "Novena", "lng": 103.84387, "lat": 1.32052, "kind": "MRT", "lines": ["NSL"]}, {"name": "Orchard", "lng": 103.83142, "lat": 1.30313, "kind": "MRT", "lines": ["NSL", "TEL"]}, {"name": "Orchard Boulevard", "lng": 103.82387, "lat": 1.30319, "kind": "MRT", "lines": ["TEL"]}, {"name": "Pandan Reservoir", "lng": 103.7448, "lat": 1.32044, "kind": "MRT", "lines": ["JRL"]}, {"name": "Pasir Panjang", "lng": 103.79135, "lat": 1.2762, "kind": "MRT", "lines": ["CCL"]}, {"name": "Pasir Ris", "lng": 103.94947, "lat": 1.37129, "kind": "MRT", "lines": ["EWL"]}, {"name": "Paya Lebar", "lng": 103.89266, "lat": 1.3175, "kind": "MRT", "lines": ["EWL", "CCL"]}, {"name": "Peng Kang Hill", "lng": 103.67859, "lat": 1.34287, "kind": "MRT", "lines": ["JRL"]}, {"name": "Pioneer", "lng": 103.69741, "lat": 1.33759, "kind": "MRT", "lines": ["EWL"]}, {"name": "Potong Pasir", "lng": 103.86904, "lat": 1.33143, "kind": "MRT", "lines": ["NEL"]}, {"name": "Prince Edward Road", "lng": 103.8471, "lat": 1.27329, "kind": "MRT", "lines": ["CCL"]}, {"name": "Promenade", "lng": 103.86056, "lat": 1.29311, "kind": "MRT", "lines": ["CCL", "DTL"]}, {"name": "Punggol", "lng": 103.90264, "lat": 1.40538, "kind": "MRT", "lines": ["NEL"]}, {"name": "Punggol Coast", "lng": 103.91012, "lat": 1.41497, "kind": "MRT", "lines": ["NEL"]}, {"name": "Queenstown", "lng": 103.80604, "lat": 1.29462, "kind": "MRT", "lines": ["EWL"]}, {"name": "Raffles Place", "lng": 103.85176, "lat": 1.28348, "kind": "MRT", "lines": ["EWL", "NSL"]}, {"name": "Ranggung", "lng": 103.89736, "lat": 1.38405, "kind": "LRT", "lines": ["SKLRT"]}, {"name": "Redhill", "lng": 103.81677, "lat": 1.28965, "kind": "MRT", "lines": ["EWL"]}, {"name": "Renjong", "lng": 103.89053, "lat": 1.38673, "kind": "LRT", "lines": ["SKLRT"]}, {"name": "Rochor", "lng": 103.85247, "lat": 1.30394, "kind": "MRT", "lines": ["DTL"]}, {"name": "Rumbia", "lng": 103.90597, "lat": 1.39147, "kind": "LRT", "lines": ["SKLRT"]}, {"name": "Sembawang", "lng": 103.82006, "lat": 1.44909, "kind": "MRT", "lines": ["NSL"]}, {"name": "Sengkang", "lng": 103.89548, "lat": 1.3917, "kind": "MRT", "lines": ["SKLRT", "NEL"]}, {"name": "Serangoon", "lng": 103.87268, "lat": 1.34981, "kind": "MRT", "lines": ["CCL", "NEL"]}, {"name": "Shenton Way", "lng": 103.85092, "lat": 1.27753, "kind": "MRT", "lines": ["TEL"]}, {"name": "Siglap", "lng": 103.93002, "lat": 1.30959, "kind": "MRT", "lines": ["TEL"]}, {"name": "Simei", "lng": 103.95337, "lat": 1.34319, "kind": "MRT", "lines": ["EWL"]}, {"name": "Sixth Avenue", "lng": 103.79725, "lat": 1.33109, "kind": "MRT", "lines": ["DTL"]}, {"name": "Somerset", "lng": 103.83913, "lat": 1.30033, "kind": "MRT", "lines": ["NSL"]}, {"name": "Springleaf", "lng": 103.81786, "lat": 1.39817, "kind": "MRT", "lines": ["TEL"]}, {"name": "Stadium", "lng": 103.87535, "lat": 1.30287, "kind": "MRT", "lines": ["CCL"]}, {"name": "Stevens", "lng": 103.82576, "lat": 1.31998, "kind": "MRT", "lines": ["DTL", "TEL"]}, {"name": "Tai Seng", "lng": 103.88821, "lat": 1.3354, "kind": "MRT", "lines": ["CCL"]}, {"name": "Tampines", "lng": 103.94408, "lat": 1.35423, "kind": "MRT", "lines": ["EWL", "DTL"]}, {"name": "Tampines East", "lng": 103.95473, "lat": 1.35599, "kind": "MRT", "lines": ["DTL"]}, {"name": "Tampines West", "lng": 103.93853, "lat": 1.3457, "kind": "MRT", "lines": ["DTL"]}, {"name": "Tan Kah Kee", "lng": 103.80726, "lat": 1.3259, "kind": "MRT", "lines": ["DTL"]}, {"name": "Tanah Merah", "lng": 103.94649, "lat": 1.32718, "kind": "MRT", "lines": ["EWL"]}, {"name": "Tanjong Katong", "lng": 103.89738, "lat": 1.29959, "kind": "MRT", "lines": ["TEL"]}, {"name": "Tanjong Pagar", "lng": 103.84571, "lat": 1.27661, "kind": "MRT", "lines": ["EWL"]}, {"name": "Tanjong Rhu", "lng": 103.87346, "lat": 1.29734, "kind": "MRT", "lines": ["TEL"]}, {"name": "Tawas", "lng": 103.69189, "lat": 1.35066, "kind": "MRT", "lines": ["JRL"]}, {"name": "Telok Ayer", "lng": 103.84827, "lat": 1.28235, "kind": "MRT", "lines": ["DTL"]}, {"name": "Telok Blangah", "lng": 103.80987, "lat": 1.27089, "kind": "MRT", "lines": ["CCL"]}, {"name": "Tengah", "lng": 103.73009, "lat": 1.36623, "kind": "MRT", "lines": ["JRL"]}, {"name": "Tengah Park", "lng": 103.73681, "lat": 1.35229, "kind": "MRT", "lines": ["JRL"]}, {"name": "Tengah Plantation", "lng": 103.73341, "lat": 1.35736, "kind": "MRT", "lines": ["JRL"]}, {"name": "Thanggam", "lng": 103.87563, "lat": 1.39733, "kind": "LRT", "lines": ["SKLRT"]}, {"name": "Tiong Bahru", "lng": 103.82696, "lat": 1.28613, "kind": "MRT", "lines": ["EWL"]}, {"name": "Toa Payoh", "lng": 103.84714, "lat": 1.33262, "kind": "MRT", "lines": ["NSL"]}, {"name": "Toh Guan", "lng": 103.7426, "lat": 1.34005, "kind": "MRT", "lines": ["NSL", "JRL"]}, {"name": "Tongkang", "lng": 103.88583, "lat": 1.38941, "kind": "LRT", "lines": ["SKLRT"]}, {"name": "Tuas Crescent", "lng": 103.64891, "lat": 1.32116, "kind": "MRT", "lines": ["EWL"]}, {"name": "Tuas Link", "lng": 103.63677, "lat": 1.34029, "kind": "MRT", "lines": ["EWL"]}, {"name": "Tuas West Road", "lng": 103.63957, "lat": 1.33005, "kind": "MRT", "lines": ["EWL"]}, {"name": "Tukang", "lng": 103.70928, "lat": 1.32532, "kind": "MRT", "lines": ["JRL"]}, {"name": "Ubi", "lng": 103.89925, "lat": 1.32994, "kind": "MRT", "lines": ["DTL"]}, {"name": "Upper Changi", "lng": 103.96147, "lat": 1.3419, "kind": "MRT", "lines": ["DTL"]}, {"name": "Upper Thomson", "lng": 103.83283, "lat": 1.35457, "kind": "MRT", "lines": ["TEL"]}, {"name": "Woodlands", "lng": 103.78746, "lat": 1.43591, "kind": "MRT", "lines": ["NSL", "TEL"]}, {"name": "Woodlands North", "lng": 103.78571, "lat": 1.44829, "kind": "MRT", "lines": ["TEL"]}, {"name": "Woodlands South", "lng": 103.79378, "lat": 1.42673, "kind": "MRT", "lines": ["TEL"]}, {"name": "Woodleigh", "lng": 103.87077, "lat": 1.3392, "kind": "MRT", "lines": ["NEL"]}, {"name": "Yew Tee", "lng": 103.7474, "lat": 1.39746, "kind": "MRT", "lines": ["NSL"]}, {"name": "Yio Chu Kang", "lng": 103.84494, "lat": 1.38179, "kind": "MRT", "lines": ["NSL"]}, {"name": "Yishun", "lng": 103.83503, "lat": 1.42938, "kind": "MRT", "lines": ["NSL"]}, {"name": "one-north", "lng": 103.78739, "lat": 1.29965, "kind": "MRT", "lines": ["CCL"]}]